id,city,lat,lng,country,capital
1,roma,41.90142322,12.48785931,italy,1
2,milan,45.46261537,9.183208011,italy,0
3,napoli,40.85173688,14.26462989,italy,0
4,venice,45.49991362,12.33931995,italy,0
5,florence,43.75820565,11.25919745,italy,0
6,Mumbai,19.0761,72.8775,India,1
7,Manila,14.5958,120.9772,Philippines,0
8,Shanghai,31.1667,121.4667,China,1
9,São Paulo,-23.55,-46.6333,Brazil,1
10,Seoul,37.56,126.99,South Korea,0
11,Mexico City,19.4333,-99.1333,Mexico,0
12,Cairo,30.0444,31.2358,Egypt,0
13,New York,40.6943,-73.9249,United States,0
14,Dhaka,23.7639,90.3889,Bangladesh,0
15,Beijing,39.904,116.4075,China,0
16,Kolkāta,22.5675,88.37,India,1
17,Bangkok,13.7525,100.4942,Thailand,0
18,Shenzhen,22.535,114.054,China,0
19,Moscow,55.7558,37.6178,Russia,0
20,Buenos Aires,-34.5997,-58.3819,Argentina,0
21,Lagos,6.455,3.3841,Nigeria,0
22,Istanbul,41.0136,28.955,Turkey,1
23,Karachi,24.86,67.01,Pakistan,1
24,Bangalore,12.9789,77.5917,India,1
25,Ho Chi Minh City,10.7756,106.7019,Vietnam,1
26,Ōsaka,34.6939,135.5022,Japan,1
27,Chengdu,30.66,104.0633,China,1
28,Tehran,35.6892,51.3889,Iran,0
29,Kinshasa,-4.325,15.3222,Congo (Kinshasa),0
30,Rio de Janeiro,-22.9111,-43.2056,Brazil,1
31,Chennai,13.0825,80.275,India,1
32,Xi’an,34.2667,108.9,China,1
33,Lahore,31.5497,74.3436,Pakistan,1
34,Chongqing,29.55,106.5069,China,1
35,Los Angeles,34.1141,-118.4068,United States,
36,Baoding,38.8671,115.4845,China,
37,London,51.5072,-0.1275,United Kingdom,0
38,Paris,48.8567,2.3522,France,0
39,Linyi,35.1041,118.3502,China,0
40,Dongguan,23.0475,113.7493,China,0
41,Hyderābād,17.385,78.4867,India,1
42,Tianjin,39.1467,117.2056,China,1
43,Lima,-12.06,-77.0375,Peru,0
44,Wuhan,30.5872,114.2881,China,1
45,Nanyang,32.9987,112.5292,China,0
46,Hangzhou,30.25,120.1675,China,1
47,Foshan,23.0292,113.1056,China,0
48,Nagoya,35.1833,136.9,Japan,1
49,Taipei,25.0375,121.5625,Taiwan,0
50,Tongshan,34.261,117.1859,China,0
51,Luanda,-8.8383,13.2344,Angola,0
52,Zhoukou,33.625,114.6418,China,0
53,Ganzhou,25.8292,114.9336,China,0
54,Kuala Lumpur,3.1478,101.6953,Malaysia,0
55,Heze,35.2333,115.4333,China,0
56,Quanzhou,24.9139,118.5858,China,0
57,Chicago,41.8375,-87.6866,United States,0
58,Nanjing,32.0608,118.7789,China,1
59,Jining,35.4,116.5667,China,0
60,Hanoi,21.0283,105.8542,Vietnam,0
61,Pune,18.5203,73.8567,India,0
62,Fuyang,32.8986,115.8045,China,0
63,Ahmedabad,23.03,72.58,India,0
64,Johannesburg,-26.2044,28.0456,South Africa,1
65,Bogotá,4.7111,-74.0722,Colombia,0
66,Dar es Salaam,-6.8161,39.2803,Tanzania,0
67,Shenyang,41.8025,123.4281,China,1
68,Khartoum,15.5006,32.56,Sudan,0
69,Shangqiu,34.4259,115.6467,China,0
70,Cangzhou,38.3037,116.8452,China,0
71,Hong Kong,22.3,114.2,Hong Kong,0
72,Shaoyang,27.2418,111.4725,China,
73,Zhanjiang,21.1967,110.4031,China,0
74,Yancheng,33.3936,120.1339,China,0
75,Hengyang,26.8968,112.5857,China,
76,Riyadh,24.6333,46.7167,Saudi Arabia,0
77,Zhumadian,32.9773,114.0253,China,
78,Santiago,-33.4372,-70.6506,Chile,0
79,Xingtai,37.0659,114.4753,China,
80,Chattogram,22.335,91.8325,Bangladesh,1
81,Bijie,27.3019,105.2863,China,
82,Shangrao,28.4419,117.9633,China,0
83,Zunyi,27.705,106.9336,China,
84,Sūrat,21.1702,72.8311,India,
85,Surabaya,-7.2458,112.7378,Indonesia,1
86,Huanggang,30.45,114.875,China,0
87,Maoming,21.6618,110.9178,China,0
88,Nanchong,30.7991,106.0784,China,0
89,Xinyang,32.1264,114.0672,China,
90,Madrid,40.4169,-3.7033,Spain,0
91,Baghdad,33.3153,44.3661,Iraq,0
92,Qujing,25.5102,103.8029,China,
93,Jieyang,23.5533,116.3649,China,0
94,Singapore,1.3,103.8,Singapore,0
95,Prayagraj,25.4358,81.8464,India,
96,Liaocheng,36.45,115.9833,China,0
97,Dalian,38.9,121.6,China,
98,Yulin,22.6293,110.1507,China,0
99,Changde,29.0397,111.6839,China,0
100,Qingdao,36.1167,120.4,China,0
101,Douala,4.05,9.7,Cameroon,1
102,Miami,25.784,-80.2101,United States,
103,Nangandao,35.2992,113.8851,China,0
104,Pudong,31.2231,121.5397,China,0
105,Xiangyang,32.0654,112.1531,China,0
106,Dallas,32.7935,-96.7667,United States,
107,Houston,29.786,-95.3885,United States,
108,Zhengzhou,34.7492,113.6605,China,1
109,Lu’an,31.7542,116.5078,China,0
110,Dezhou,37.4513,116.3105,China,0
111,Jinan,36.6667,116.9833,China,1
112,Giza,29.987,31.2118,Egypt,1
113,Zhaotong,27.3328,103.7144,China,
114,Yichun,27.8041,114.383,China,0
115,Nairobi,-1.2864,36.8172,Kenya,0
116,Guadalajara,20.6767,-103.3475,Mexico,1
117,Philadelphia,40.0077,-75.1339,United States,
118,Ankara,39.93,32.85,Turkey,0
119,Tai’an,36.2001,117.0809,China,
120,Dazhou,31.2152,107.4947,China,0
121,Langfang,39.5196,116.7006,China,
122,Yongzhou,26.4515,111.5953,China,
123,Toronto,43.7417,-79.3733,Canada,1
124,Suihua,46.6384,126.9808,China,0
125,Saint Petersburg,59.95,30.3167,Russia,1
126,Qiqihar,47.3398,123.9512,China,0
127,Suzhou,33.6333,116.9683,China,
128,Monterrey,25.6667,-100.3,Mexico,1
129,Belo Horizonte,-19.9167,-43.9333,Brazil,1
130,Weinan,34.4996,109.4684,China,0
131,Rangoon,16.795,96.16,Myanmar,0
132,Zhangzhou,24.5093,117.6612,China,0
133,Yuncheng,35.0304,110.998,China,
134,Xianyang,34.35,108.7167,China,0
135,Guilin,25.2819,110.2864,China,0
136,Atlanta,33.7628,-84.422,United States,1
137,Taizhou,32.4831,119.9,China,0
138,Kāshān,33.9833,51.4333,Iran,0
139,Bozhou,33.8626,115.7742,China,
140,Abidjan,5.3167,-4.0333,Côte d'Ivoire,0
141,Suqian,33.9331,118.2831,China,
142,Huaihua,27.5494,109.9592,China,
143,Ji’an,27.1172,114.9793,China,0
144,Xiaoganzhan,30.9273,113.911,China,
145,Pingdingshan,33.735,113.2999,China,
146,Jiujiang,29.7048,116.0021,China,0
147,Alexandria,31.1975,29.8925,Egypt,1
148,Mianyang,31.4669,104.7385,China,0
149,Sydney,-33.8678,151.21,Australia,1
150,Huanglongsi,34.795,114.345,China,
151,Washington,38.9047,-77.0163,United States,0
152,Barcelona,41.3825,2.1769,Spain,1
153,Changsha,28.1987,112.9709,China,1
154,Chenzhou,25.7989,113.0267,China,0
155,Anqing,30.5,117.0333,China,0
156,Jiangmen,22.5833,113.0833,China,0
157,Xinpu,34.5906,119.1801,China,0
158,Yibin,28.7596,104.64,China,0
159,Yangzhou,32.3912,119.4363,China,
160,Melbourne,-37.8142,144.9631,Australia,1
161,Berlin,52.52,13.405,Germany,0
162,Hengshui,37.7348,115.686,China,
163,Timbío,2.3445,-76.6839,Colombia,0
164,Kunming,25.0433,102.7061,China,1
165,Yiyang,28.5833,112.3333,China,
166,Guigang,23.0961,109.6092,China,0
167,Changchun,43.9,125.2,China,1
168,Jiangguanchi,34.0244,113.8201,China,0
169,Casablanca,33.5333,-7.5833,Morocco,1
170,Meizhou,24.2998,116.1191,China,0
171,Zhangjiakou,40.8108,114.8811,China,0
172,Chifeng,42.2663,118.9223,China,0
173,Ürümqi,43.8225,87.6125,China,1
174,Suzhou,31.3,120.6194,China,0
175,İzmir,38.42,27.14,Turkey,1
176,Linfen,36.0812,111.5087,China,
177,Shantou,23.3735,116.6941,China,0
178,Kabul,34.5253,69.1783,Afghanistan,0
179,Mogadishu,2.0392,45.3419,Somalia,0
180,Luzhou,28.8918,105.4409,China,0
181,Hefei,31.8639,117.2808,China,1
182,Boston,42.3188,-71.0852,United States,1
183,Liuzhou,24.3264,109.4281,China,0
184,Zhaoqing,23.05,112.4667,China,0
185,Xiaoxita,30.7083,111.2803,China,0
186,Shijiazhuang,38.0422,114.5086,China,1
187,Ningbo,29.875,121.5492,China,0
188,Fuzhou,27.9814,116.3577,China,
189,Phoenix,33.5722,-112.0892,United States,1
190,Zhuzhou,27.8407,113.1469,China,0
191,Amman,31.9497,35.9328,Jordan,0
192,Chuzhou,32.3062,118.3115,China,
193,Jeddah,21.5433,39.1728,Saudi Arabia,
194,Qingyuan,23.6842,113.0507,China,0
195,Loudi,27.7378,111.9974,China,
196,Binzhou,37.3806,118.0125,China,
197,Deyang,31.1289,104.395,China,0
198,Taiyuan,37.8733,112.5425,China,1
199,Kano,12,8.5167,Nigeria,1
200,Wuhu,31.334,118.3622,China,0
201,Nanning,22.8192,108.315,China,1
202,Harbin,45.75,126.6333,China,1
203,Abuja,9.0667,7.4833,Nigeria,0
204,Yokohama,35.4442,139.6381,Japan,1
205,Baojishi,34.3609,107.1751,China,
206,Zaozhuang,34.8667,117.55,China,
207,Xiamen,24.4797,118.0819,China,0
208,Neijiang,29.5872,105.0635,China,0
209,Fuzhou,26.0769,119.2917,China,1
210,Baicheng,23.901,106.6194,China,0
211,Anshan,41.1066,122.9895,China,
212,Medan,3.5894,98.6739,Indonesia,1
213,Yulinshi,38.2655,109.7388,China,
214,Wenzhou,27.9991,120.6561,China,
215,Changzhou,31.8122,119.9692,China,0
216,Puyang,35.7639,115.03,China,0
217,Jiaozuo,35.229,113.2304,China,
218,Nanchang,28.6842,115.8872,China,1
219,Ibadan,7.3964,3.9167,Nigeria,1
220,Hechi,24.6928,108.085,China,0
221,Detroit,42.3834,-83.1024,United States,
222,Montréal,45.5089,-73.5617,Canada,
223,Busan,35.18,129.075,South Korea,1
224,Hohhot,40.8151,111.6629,China,1
225,Seattle,47.6211,-122.3244,United States,
226,Algiers,36.7539,3.0589,Algeria,0
227,Hanzhong,33.0794,107.026,China,
228,Tangshan,39.6292,118.1742,China,
229,Shiyan,32.6351,110.7755,China,0
230,Lucknow,26.85,80.95,India,1
231,Siping,43.1715,124.3644,China,0
232,Mashhad,36.3,59.6,Iran,1
233,Boankra,6.6944,-1.4028,Ghana,
234,Changzhi,36.1953,113.097,China,0
235,Dubai,25.2631,55.2972,United Arab Emirates,1
236,Qinzhou,21.95,108.6167,China,0
237,Guiyang,26.5794,106.7078,China,1
238,Bengbu,32.9354,117.3531,China,
239,San Francisco,37.7558,-122.4449,United States,
240,Bazhou,31.8576,106.7559,China,0
241,Qincheng,34.5809,105.7311,China,0
242,Suining,30.5098,105.5737,China,0
243,Wuxi,31.5667,120.2833,China,0
244,Leshan,29.5854,103.7575,China,
245,Putian,25.4394,119.0103,China,0
246,Zhenjiang,32.2109,119.4551,China,0
247,Faisalabad,31.4167,73.0911,Pakistan,0
248,Guang’an,30.4673,106.6336,China,0
249,Tongren,27.7233,109.1885,China,
250,Santa Cruz,-17.7892,-63.1975,Bolivia,1
251,Qinhuangdao,39.9398,119.5881,China,
252,Tongliao,43.6172,122.264,China,0
253,Jinzhou,41.1144,121.1292,China,
254,Heyuan,23.7503,114.6923,China,0
255,San Diego,32.8313,-117.1222,United States,
256,Jaipur,26.9,75.8,India,1
257,Xinzhou,38.4178,112.7233,China,0
258,Lanzhou,36.0617,103.8318,China,1
259,Wuzhou,23.4833,111.3167,China,0
260,Athens,37.9842,23.7281,Greece,0
261,Addis Ababa,9.03,38.74,Ethiopia,0
262,Chaoyang,41.5757,120.4486,China,
263,Brasília,-15.7939,-47.8828,Brazil,0
264,Taichung,24.1439,120.6794,Taiwan,1
265,Kuwait City,29.3697,47.9783,Kuwait,0
266,Budapest,47.4925,19.0514,Hungary,0
267,Shaoguan,24.8011,113.5927,China,0
268,Shanwei,22.7664,115.3331,China,0
269,Quezon City,14.63,121.03,Philippines,1
270,Rizhao,35.4164,119.4331,China,0
271,Kyiv,50.45,30.5233,Ukraine,0
272,Sanaa,15.3483,44.2064,Yemen,0
273,Meishan,30.0575,103.8381,China,
274,Incheon,37.4833,126.6333,South Korea,1
275,Guatemala City,14.6099,-90.5252,Guatemala,0
276,Birmingham,52.48,-1.9025,United Kingdom,
277,Zhongshan,22.5333,113.35,China,0
278,Ningde,26.6617,119.5228,China,0
279,Weihai,37.5,122.1,China,0
280,Daqing,46.5979,125.008,China,0
281,Bursa,40.1833,29.05,Turkey,1
282,Salvador,-12.9747,-38.4767,Brazil,1
283,Haikou,20.02,110.32,China,1
284,La Paz,-16.5,-68.15,Bolivia,0
285,Xiangtan,27.8431,112.9228,China,
286,Pyongyang,39.0194,125.7381,North Korea,0
287,Minneapolis,44.9635,-93.2678,United States,
288,Omdurman,15.65,32.4833,Sudan,
289,Malang,-7.98,112.62,Indonesia,
290,Mudanjiang,44.5861,129.5997,China,0
291,Stuttgart,48.7775,9.18,Germany,1
292,Brooklyn,40.6501,-73.9496,United States,
293,Kaohsiung,22.615,120.2975,Taiwan,1
294,Guayaquil,-2.19,-79.8875,Ecuador,1
295,Lisbon,38.7253,-9.15,Portugal,0
296,Longyan,25.0881,117.0244,China,0
297,Tieling,42.2841,123.8365,China,
298,Manchester,53.4794,-2.2453,United Kingdom,
299,Baotou,40.6562,109.8345,China,
300,Handan,36.6116,114.4894,China,0
301,Cawnpore,26.4499,80.3319,India,
302,Dingxi,35.5806,104.6263,China,0
303,Nanping,26.6448,118.1728,China,0
304,Tampa,27.9945,-82.4447,United States,
305,Zigong,29.3498,104.7645,China,
306,Maracaibo,10.6333,-71.6333,Venezuela,1
307,Chaozhou,23.67,116.63,China,0
308,Mbuji-Mayi,-6.15,23.6,Congo (Kinshasa),1
309,Denver,39.762,-104.8758,United States,1
310,Gulou,26.0865,119.298,China,0
311,Weifang,36.7167,119.1,China,
312,Huai’an,33.5058,119.1392,China,
313,Zibo,36.7831,118.0497,China,
314,Ankang,32.6877,109.0235,China,
315,Baoshan,25.1211,99.169,China,
316,Antananarivo,-18.9333,47.5167,Madagascar,0
317,Huludao,40.7094,120.8378,China,0
318,Munich,48.1375,11.575,Germany,1
319,Yanjiang,30.1256,104.6397,China,0
320,Santo Domingo,18.4764,-69.8933,Dominican Republic,0
321,Sanming,26.2658,117.6302,China,0
322,Tashkent,41.3111,69.2797,Uzbekistan,0
323,Longba,33.535,105.349,China,
324,Yangjiang,21.8556,111.9627,China,0
325,Jiamusi,46.8081,130.3653,China,0
326,Luohe,33.583,114.0109,China,0
327,Lincang,23.8864,100.0871,China,
328,Medellín,6.2308,-75.5906,Colombia,1
329,Xuanzhou,30.9475,118.7518,China,
330,Yunfu,22.9242,112.0353,China,0
331,Shaoxing,30,120.5833,China,0
332,Yantai,37.3997,121.2664,China,
333,Huizhou,23.1115,114.4152,China,0
334,Lishui,28.45,119.9167,China,0
335,Mirzāpur,25.146,82.569,India,
336,Hamburg,53.55,10,Germany,1
337,Guangyuan,32.4353,105.8398,China,
338,Cali,3.4206,-76.5222,Colombia,1
339,Lusaka,-15.4167,28.2833,Zambia,0
340,Huangshi,30.2018,115.0326,China,0
341,Xining,36.6239,101.7787,China,1
342,Ouagadougou,12.3686,-1.5275,Burkina Faso,0
343,Daegu,35.8717,128.6017,South Korea,1
344,Fortaleza,-3.7275,-38.5275,Brazil,1
345,Yaoundé,3.8667,11.5167,Cameroon,0
346,Jilin,43.8519,126.5481,China,
347,Dandong,40.1167,124.3833,China,
348,Zhuhai,22.2769,113.5678,China,0
349,Lianshan,40.7523,120.828,China,0
350,Yingkou,40.6653,122.2297,China,0
351,Antalya,36.8874,30.7075,Turkey,1
352,Nāgpur,21.1497,79.0806,India,1
353,Queens,40.7498,-73.7976,United States,
354,Accra,5.55,-0.2,Ghana,0
355,Bekasi,-6.2349,106.9923,Indonesia,
356,Ghāziābād,28.67,77.42,India,
357,Yuxi,24.3495,102.5432,China,0
358,Luoyang,34.6587,112.4245,China,
359,Brisbane,-27.4678,153.0281,Australia,1
360,Anshun,26.2456,105.934,China,
361,Depok,-6.394,106.8225,Indonesia,
362,Shangzhou,33.868,109.9244,China,
363,Huainan,32.4831,117.0164,China,
364,Colombo,6.9344,79.8428,Sri Lanka,0
365,Kuaidamao,41.7302,125.9471,China,0
366,Baku,40.3667,49.8352,Azerbaijan,0
367,Fukuoka,33.5833,130.4,Japan,1
368,Yan’an,36.5952,109.4863,China,
369,Jincheng,35.4906,112.8483,China,0
370,Vancouver,49.25,-123.1,Canada,
371,Nantong,31.9829,120.8873,China,0
372,Tangerang,-6.1783,106.6319,Indonesia,
373,Caracas,10.4806,-66.9036,Venezuela,0
374,Sanmenxia,34.7736,111.195,China,
375,Laibin,23.7333,109.2333,China,0
376,Konya,37.8667,32.4833,Turkey,1
377,Manaus,-3.1,-60.0167,Brazil,1
378,Eşfahān,32.6447,51.6675,Iran,1
379,Qinbaling,35.7278,107.64,China,
380,Baltimore,39.3051,-76.6144,United States,
381,Ma’anshan,31.6858,118.5101,China,0
382,Shengli,37.45,118.4667,China,0
383,Gaoping,30.7824,106.1281,China,0
384,Taizhou,28.6583,121.4221,China,0
385,Harare,-17.8292,31.0522,Zimbabwe,0
386,Kowloon,22.3167,114.1833,Hong Kong,
387,Las Vegas,36.2333,-115.2654,United States,
388,Havana,23.1367,-82.3589,Cuba,0
389,Perth,-31.9559,115.8606,Australia,1
390,Phnom Penh,11.5694,104.9211,Cambodia,0
391,Puning,23.2993,116.1586,China,
392,Huaibei,33.9562,116.789,China,
393,Qingyang,24.8141,118.5792,China,0
394,Haiphong,20.8651,106.6838,Vietnam,1
395,Chongzuo,22.4167,107.3667,China,0
396,Rawalpindi,33.6,73.0333,Pakistan,0
397,Yushan,31.3867,120.9766,China,0
398,St. Louis,38.6359,-90.2451,United States,
399,Kumasi,6.6667,-1.6167,Ghana,1
400,Vadodara,22.3,73.2,India,
401,Hezhou,24.4164,111.5478,China,0
402,Pingliang,35.5412,106.6819,China,0
403,Portland,45.5371,-122.65,United States,
404,Vishākhapatnam,17.7042,83.2978,India,
405,Gujranwala,32.1567,74.19,Pakistan,0
406,Baicheng,45.6148,122.832,China,0
407,Gaziantep,37.0628,37.3792,Turkey,1
408,Fushun,41.8708,123.8917,China,
409,Riverside,33.9381,-117.3949,United States,
410,Bamako,12.6458,-7.9922,Mali,0
411,Quito,-0.22,-78.5125,Ecuador,0
412,Minsk,53.9,27.5667,Belarus,0
413,Tijuana,32.525,-117.0333,Mexico,0
414,Bamenda,5.9614,10.1517,Cameroon,1
415,Boosaaso,11.2886,49.1819,Somalia,1
416,Indore,22.7167,75.8472,India,
417,Şanlıurfa,37.1583,38.7917,Turkey,1
418,Vienna,48.2083,16.3725,Austria,0
419,Karaj,35.8272,50.9489,Iran,1
420,Kananga,-5.897,22.4488,Congo (Kinshasa),1
421,Peshawar,34.0144,71.5675,Pakistan,1
422,Sapporo,43.0667,141.35,Japan,1
423,Ecatepec,19.6097,-99.06,Mexico,0
424,Pingxiang,27.6333,113.85,China,0
425,Orlando,28.4773,-81.337,United States,
426,Aleppo,36.2,37.16,Syria,1
427,Sacramento,38.5677,-121.4685,United States,1
428,Almaty,43.2775,76.8958,Kazakhstan,1
429,San Juan,18.3985,-66.061,Puerto Rico,0
430,San Antonio,29.4632,-98.5238,United States,
431,Yinchuan,38.4795,106.2254,China,1
432,Thāne,19.1972,72.9722,India,
433,Santos,-23.9369,-46.325,Brazil,
434,Blantyre,-15.7861,35.0058,Malawi,1
435,Bucharest,44.4325,26.1039,Romania,0
436,Curitiba,-25.4297,-49.2711,Brazil,1
437,Multan,30.1978,71.4697,Pakistan,0
438,Tainan,22.9833,120.1833,Taiwan,1
439,Xiping,40.082,113.2981,China,0
440,Port Harcourt,4.8242,7.0336,Nigeria,1
441,Warsaw,52.23,21.0111,Poland,0
442,Jixi,45.2937,130.965,China,0
443,Saidu Sharif,34.75,72.3572,Pakistan,0
444,Liaoyang,41.2643,123.1772,China,
445,Beihai,21.4667,109.1,China,0
446,Meru,0.05,37.65,Kenya,1
447,Brazzaville,-4.2694,15.2714,Congo (Brazzaville),0
448,Fuxin,42.0127,121.6486,China,
449,Wuwei,37.9278,102.6329,China,0
450,Mersin,36.8,34.6333,Turkey,1
451,Bhopāl,23.25,77.4167,India,1
452,Lubumbashi,-11.6647,27.4794,Congo (Kinshasa),1
453,Denpasar,-8.65,115.2167,Indonesia,1
454,Davao,7.0667,125.6,Philippines,1
455,Shuyangzha,34.1299,118.7734,China,
456,Adana,37,35.3213,Turkey,1
457,Damascus,33.5131,36.2919,Syria,0
458,Brussels,50.8467,4.3525,Belgium,0
459,Hyderabad City,25.3792,68.3683,Pakistan,0
460,Diyarbakır,37.91,40.24,Turkey,1
461,San Jose,37.3012,-121.848,United States,
462,Chinchvad,18.6186,73.8037,India,
463,Montevideo,-34.8836,-56.1819,Uruguay,0
464,Pittsburgh,40.4397,-79.9763,United States,
465,Shuozhou,39.3408,112.4292,China,0
466,Cincinnati,39.1413,-84.506,United States,
467,Benxi,41.292,123.761,China,
468,Baiyin,36.5448,104.1766,China,0
469,Mosul,36.34,43.13,Iraq,1
470,Manhattan,40.7834,-73.9662,United States,
471,Caloocan City,14.65,120.97,Philippines,1
472,Kampala,0.3136,32.5811,Uganda,0
473,Patna,25.6,85.1,India,1
474,Tegucigalpa,14.1,-87.2167,Honduras,0
475,Cleveland,41.4764,-81.6805,United States,
476,Sanzhou,30.82,108.4,China,
477,Changshu,31.65,120.7333,China,
478,Mecca,21.4225,39.8233,Saudi Arabia,1
479,Heihe,50.2458,127.4886,China,0
480,Jingdezhen,29.2942,117.2036,China,0
481,Conakry,9.5092,-13.7122,Guinea,0
482,Recife,-8.05,-34.9,Brazil,1
483,Indianapolis,39.7771,-86.1458,United States,1
484,Austin,30.3005,-97.7522,United States,1
485,Sangereng,-6.2889,106.7181,Indonesia,
486,Kansas City,39.1238,-94.5541,United States,
487,Zhongli,24.965,121.2168,Taiwan,
488,Novosibirsk,55.0333,82.9167,Russia,1
489,Bilāspur,22.09,82.15,India,
490,Semarang,-6.9667,110.4167,Indonesia,1
491,Ludhiāna,30.91,75.85,India,
492,Nārāyanganj,23.62,90.5,Bangladesh,
493,Stockholm,59.3294,18.0686,Sweden,0
494,Chengtangcun,35.0833,117.15,China,
495,Āgra,27.18,78.02,India,
496,Balandougou,13.3558,-9.5517,Mali,
497,Agwār,27.18,78.02,India,
498,León de los Aldama,21.1167,-101.6833,Mexico,0
499,Yopougon,5.3167,-4.0667,Côte d'Ivoire,
500,Puebla,19.0333,-98.1833,Mexico,1
501,Madurai,9.9252,78.1198,India,0
502,Hebi,35.7497,114.2887,China,
503,Córdoba,-31.4167,-64.1833,Argentina,1
504,Shīrāz,29.61,52.5425,Iran,1
505,Jamshedpur,22.7925,86.1842,India,
506,Tabrīz,38.0814,46.3006,Iran,1
507,Huzhou,30.8925,120.0875,China,0
508,Columbus,39.9862,-82.9855,United States,1
509,Sofia,42.7,23.33,Bulgaria,0
510,Kawasaki,35.5167,139.7,Japan,
511,San José,9.9325,-84.08,Costa Rica,0
512,Aba,5.1167,7.3667,Nigeria,0
513,Palembang,-2.9861,104.7556,Indonesia,1
514,Zhangjiajie,29.1255,110.4844,China,0
515,Kōbe,34.69,135.1956,Japan,1
516,Jiaxing,30.7522,120.75,China,0
517,Charlotte,35.2083,-80.8303,United States,
518,Guiping,23.4,110.0833,China,0
519,Lianjiang,21.6146,110.2794,China,
520,Ximeicun,24.9633,118.3811,China,
521,Jianguang,28.1958,115.7833,China,
522,Yucheng,29.9888,103.0007,China,0
523,Panama City,8.9833,-79.5167,Panama,0
524,Xushan,30.1697,121.2665,China,0
525,Belém,-1.4558,-48.5039,Brazil,1
526,Virginia Beach,36.7335,-76.0435,United States,
527,Leizhou,20.9147,110.0806,China,0
528,Gwangju,35.1653,126.8486,South Korea,1
529,Nāsik,20,73.78,India,
530,Porto Alegre,-30.0331,-51.23,Brazil,1
531,Valencia,10.1667,-68,Venezuela,1
532,Onitsha,6.1667,6.7833,Nigeria,0
533,Abu Dhabi,24.4667,54.3667,United Arab Emirates,0
534,Daejeon,36.351,127.385,South Korea,1
535,Zapopan,20.7167,-103.4,Mexico,0
536,Bronx,40.8501,-73.8662,United States,
537,Yekaterinburg,56.8356,60.6128,Russia,1
538,Huazhou,32.6832,112.079,China,0
539,Kyōto,35.0117,135.7683,Japan,1
540,Jinhua,29.1046,119.6494,China,0
541,Amsterdam,52.3728,4.8936,Netherlands,0
542,Shuangyashan,46.6388,131.1545,China,0
543,Pizhou,34.3422,118.0097,China,
544,El Kelaa des Srarhna,32.0481,-7.4083,Morocco,
545,Dakar,14.6928,-17.4467,Senegal,0
546,Kharkiv,49.9925,36.2311,Ukraine,1
547,Yangshe,31.8775,120.5512,China,0
548,Guyuan,36.008,106.2782,China,
549,Rui’an,27.778,120.6526,China,
550,Khulna,22.8167,89.55,Bangladesh,1
551,Muscat,23.6139,58.5922,Oman,0
552,Wenling,28.3797,121.3718,China,
553,Gaozhou,21.9135,110.8481,China,0
554,Farīdābād,28.4167,77.3,India,
555,Chizhou,30.6583,117.4849,China,0
556,Tel Aviv-Yafo,32.08,34.78,Israel,1
557,Ulaanbaatar,47.9203,106.9172,Mongolia,0
558,Goiânia,-16.6667,-49.25,Brazil,1
559,Fuqing,25.7232,119.3735,China,0
560,Kayseri,38.7225,35.4875,Turkey,1
561,Wuzhong,37.9874,106.1919,China,0
562,Belgrade,44.82,20.46,Serbia,0
563,Pingdu,36.7833,119.9556,China,
564,Aurangābād,19.88,75.32,India,
565,Copenhagen,55.6761,12.5683,Denmark,0
566,Yangquan,37.8576,113.5762,China,0
567,Yutan,28.3147,112.554,China,0
568,Huangshan,29.7132,118.3151,China,0
569,Auckland,-36.8406,174.74,New Zealand,1
570,Makassar,-5.1619,119.4362,Indonesia,1
571,Santiago,19.4572,-70.6889,Dominican Republic,1
572,Milwaukee,43.0642,-87.9675,United States,
573,Rājkot,22.3,70.7833,India,
574,Prague,50.0875,14.4214,Czechia,0
575,Samsun,41.2903,36.3336,Turkey,1
576,Liangshi,27.2578,111.7351,China,
577,Barranquilla,10.9833,-74.8019,Colombia,1
578,Saitama,35.8614,139.6456,Japan,1
579,Guarulhos,-23.4628,-46.5328,Brazil,
580,Al Başrah,30.515,47.81,Iraq,1
581,Mandalay,21.9831,96.0844,Myanmar,1
582,Juárez,31.7386,-106.487,Mexico,0
583,Xintai,35.91,117.78,China,
584,Wusong,30.9333,117.7667,China,0
585,Meerut,28.98,77.71,India,
586,Yushu,44.8249,126.5451,China,0
587,Rongcheng,26.2312,104.0966,China,
588,Huazhou,21.654,110.6294,China,
589,Adelaide,-34.9275,138.6,Australia,1
590,Baishan,41.9377,126.4179,China,0
591,Dayan,26.8808,100.2208,China,
592,Haicheng,40.8523,122.7474,China,0
593,Tripoli,32.8872,13.1914,Libya,0
594,Jiangyin,31.9087,120.2653,China,
595,Yicheng,31.3697,119.8239,China,0
596,Huaiyin,33.5819,119.028,China,
597,Porto,41.1621,-8.622,Portugal,1
598,Cacuaco,-8.8053,13.2444,Angola,
599,Soweto,-26.2678,27.8585,South Africa,
600,Rosario,-32.9575,-60.6394,Argentina,0
601,Canagatan,18,121.8,Philippines,
602,Helsinki,60.1708,24.9375,Finland,0
603,Jabalpur,23.1667,79.9333,India,
604,Providence,41.823,-71.4187,United States,1
605,Rucheng,32.3852,120.5634,China,0
606,Nizhniy Novgorod,56.3269,44.0075,Russia,1
607,Ahvāz,31.3203,48.6692,Iran,1
608,Jepara,-6.5333,110.6667,Indonesia,0
609,Shaoyang,32.9387,119.8404,China,0
610,Comayagüela,14.0981,-87.2097,Honduras,
611,Laiwu,36.1833,117.6667,China,
612,Sharjah,25.3575,55.3908,United Arab Emirates,1
613,Kalamboli,19.2333,73.1333,India,
614,Jingling,30.6667,113.1667,China,
615,Kazan,55.7964,49.1089,Russia,1
616,Suwon,37.2667,127.0167,South Korea,1
617,Yongcheng,33.9317,116.4459,China,
618,Sumedang,-6.84,107.9208,Indonesia,
619,Calgary,51.05,-114.0667,Canada,
620,Cần Thơ,10.0333,105.7833,Vietnam,1
621,Yiwu,29.3081,120.0698,China,0
622,Bagam,1.0833,104.0333,Indonesia,
623,Beidao,34.602,105.918,China,0
624,Vasai,19.47,72.8,India,
625,Xiangshui,26.5964,104.8314,China,
626,Jacksonville,30.3322,-81.6749,United States,
627,Akçaabat,41.0167,39.55,Turkey,0
628,Campinas,-22.9058,-47.0608,Brazil,
629,Dadukou,26.5849,101.7149,China,0
630,Mombasa,-4.05,39.6667,Kenya,1
631,Lingcheng,22.7,110.35,China,
632,Najafgarh,28.6092,76.9798,India,
633,Vila Velha,3.2167,-51.2167,Brazil,
634,Gāzipura,23.9889,90.375,Bangladesh,
635,Chelyabinsk,55.15,61.4,Russia,1
636,Vārānasi,25.3189,83.0128,India,
637,Xinyu,27.795,114.9242,China,0
638,Qom,34.64,50.8764,Iran,1
639,Hargeysa,9.5631,44.0675,Somalia,1
640,Zhangye,38.9355,100.4553,China,0
641,Hiroshima,34.3914,132.4519,Japan,1
642,Maiduguri,11.8333,13.15,Nigeria,1
643,Chiang Mai,18.7953,98.9986,Thailand,1
644,Doha,25.2867,51.5333,Qatar,0
645,Maputo,-25.9667,32.5833,Mozambique,0
646,Mbandaka,0.0478,18.2558,Congo (Kinshasa),1
647,Pikine,14.75,-17.4,Senegal,
648,Medina,24.47,39.61,Saudi Arabia,1
649,Srīnagar,34.09,74.79,India,1
650,Omsk,54.9667,73.3833,Russia,1
651,Dublin,53.35,-6.2603,Ireland,0
652,Liaoyuan,42.8976,125.1381,China,
653,Cilacap,-7.7167,109.017,Indonesia,0
654,Yingtan,28.2333,117,China,
655,Bandar Lampung,-5.45,105.2667,Indonesia,1
656,Samara,53.2028,50.1408,Russia,1
657,Guankou,28.1417,113.625,China,0
658,Ulsan,35.55,129.3167,South Korea,1
659,Dhanbād,23.7998,86.4305,India,
660,Dingzhou,38.5158,114.9845,China,
661,Lianyuan,27.6961,111.6659,China,0
662,Rongcheng,29.8239,112.9019,China,0
663,Kaiyuan,36.0656,113.8153,China,0
664,Nay Pyi Taw,19.7475,96.115,Myanmar,0
665,Zhuji,29.7169,120.2314,China,0
666,Kigali,-1.9536,30.0606,Rwanda,0
667,Bukavu,-2.5,28.8667,Congo (Kinshasa),1
668,Leiyang,26.4179,112.8457,China,0
669,Bafoussam,5.4667,10.4167,Cameroon,1
670,Yichun,47.7235,128.8893,China,0
671,Benin City,6.3333,5.6222,Nigeria,1
672,Rostov,47.2333,39.7,Russia,1
673,Xiantao,30.3833,113.4,China,
674,Amritsar,31.64,74.86,India,
675,Callao,-12.0333,-77.1333,Peru,1
676,Salt Lake City,40.7776,-111.9311,United States,1
677,Alīgarh,27.88,78.08,India,
678,Shagamu,6.8333,3.65,Nigeria,0
679,Yingchuan,34.1511,113.4733,China,0
680,Ciudad Nezahualcóyotl,19.4081,-99.0186,Mexico,
681,Tbilisi,41.7225,44.7925,Georgia,0
682,Guwāhāti,26.1722,91.7458,India,
683,Ufa,54.7261,55.9475,Russia,1
684,Fès,34.0433,-5.0033,Morocco,1
685,São Luís,-2.5283,-44.3044,Brazil,1
686,Biên Hòa,10.95,106.8167,Vietnam,1
687,Sevilla,37.24,-5.99,Spain,1
688,N’Djamena,12.11,15.05,Chad,0
689,Mexicali,32.6633,-115.4678,Mexico,1
690,Nezahualcóyotl,19.4006,-99.0148,Mexico,0
691,Ikare,7.5167,5.75,Nigeria,0
692,Nashville,36.1715,-86.7842,United States,1
693,Tamale,9.4075,-0.8533,Ghana,1
694,Xibeijie,39.737,98.5049,China,0
695,Yuyao,30.0372,121.1546,China,
696,Hāora,22.58,88.3294,India,
697,Hanchuan,30.652,113.8274,China,
698,Gongzhuling,43.5036,124.8088,China,0
699,Krasnoyarsk,56.0089,92.8719,Russia,1
700,Cologne,50.9364,6.9528,Germany,
701,Bujumbura,-3.3833,29.3667,Burundi,0
702,Bishkek,42.8747,74.6122,Kyrgyzstan,0
703,Zhufeng,36,119.4167,China,
704,São Gonçalo,-22.8269,-43.0539,Brazil,
705,Yerevan,40.1814,44.5144,Armenia,0
706,Ezhou,30.3972,114.8842,China,0
707,Nur-Sultan,51.1472,71.4222,Kazakhstan,0
708,Tongjin,37.2333,127.2,South Korea,
709,Nouakchott,18.0858,-15.9785,Mauritania,0
710,Xiashi,30.5333,120.6833,China,0
711,Rānchi,23.36,85.33,India,1
712,Taixing,32.1724,120.0142,China,0
713,Vereeniging,-26.6736,27.9319,South Africa,
714,Gwalior,26.2215,78.178,India,
715,Zhongwei,37.5139,105.1884,China,0
716,Goyang,37.65,126.8,South Korea,0
717,Oslo,59.9133,10.7389,Norway,0
718,Vijayavāda,16.5193,80.6305,India,
719,Chandīgarh,30.75,76.78,India,1
720,Edmonton,53.5344,-113.4903,Canada,1
721,Sendai,38.2682,140.8694,Japan,1
722,Raleigh,35.8324,-78.6429,United States,1
723,Mizhou,35.99,119.3801,China,0
724,Tunis,36.8064,10.1817,Tunisia,0
725,Xishan,27.6609,113.4946,China,0
726,Barquisimeto,10.0678,-69.3467,Venezuela,1
727,Hegang,47.3139,130.2775,China,0
728,Voronezh,51.6717,39.2106,Russia,1
729,Perm,58.0139,56.2489,Russia,1
730,Changwon,35.2708,128.6631,South Korea,1
731,Fangchenggang,21.6,108.3,China,0
732,Shouguang,36.8833,118.7333,China,
733,Bogor,-6.5966,106.7972,Indonesia,
734,Cartagena,10.4,-75.5,Colombia,1
735,Matola,-25.9667,32.4667,Mozambique,
736,Jodhpur,26.28,73.02,India,
737,Memphis,35.1087,-89.9663,United States,
738,Ogbomoso,8.1333,4.25,Nigeria,0
739,Rangapukur,25.56,89.25,Bangladesh,
740,Managua,12.1544,-86.2738,Nicaragua,0
741,Sanya,18.2533,109.5036,China,0
742,Shymkent,42.3167,69.5958,Kazakhstan,1
743,Wutong,30.6326,120.5474,China,0
744,Niamey,13.515,2.1175,Niger,0
745,Shubrā al Khaymah,30.1286,31.2422,Egypt,
746,Linhai,28.8523,121.1409,China,
747,Denizli,37.7667,29.0833,Turkey,1
748,Maceió,-9.6658,-35.735,Brazil,1
749,Monrovia,6.3133,-10.8014,Liberia,0
750,Wafangdian,39.6271,121.9972,China,
751,Zhongxiang,31.169,112.5853,China,
752,Louisville,38.1663,-85.6485,United States,
753,Odesa,46.4775,30.7326,Ukraine,1
754,Thủ Đức,10.8266,106.7609,Vietnam,0
755,Volgograd,48.7086,44.5147,Russia,1
756,Islamabad,33.6931,73.0639,Pakistan,0
757,Port-au-Prince,18.5333,-72.3333,Haiti,0
758,Xinyi,22.3559,110.9369,China,
759,Raipur,21.25,81.63,India,1
760,Arequipa,-16.4,-71.5333,Peru,1
761,Richmond,37.5295,-77.4756,United States,1
762,Zaoyang,32.1287,112.7581,China,
763,Buffalo,42.9018,-78.8487,United States,
764,Shuizhai,33.4433,114.8994,China,
765,Xingyi,25.091,104.9011,China,
766,Kota,25.18,75.83,India,
767,Quetta,30.1833,67,Pakistan,1
768,Kathmandu,27.7172,85.324,Nepal,0
769,Ottawa,45.4247,-75.695,Canada,0
770,Lilongwe,-13.9833,33.7833,Malawi,0
771,Asmara,15.3228,38.925,Eritrea,0
772,Freetown,8.4844,-13.2344,Sierra Leone,0
773,Vientiane,17.9667,102.6,Laos,0
774,Jerusalem,31.7784,35.2066,Israel,0
775,Riga,56.9489,24.1064,Latvia,0
776,Bangui,4.3733,18.5628,Central African Republic,0
777,Dushanbe,38.5367,68.78,Tajikistan,0
778,Lomé,6.1319,1.2228,Togo,0
779,Ashgabat,37.95,58.3833,Turkmenistan,0
780,Zagreb,45.8167,15.9833,Croatia,0
781,Libreville,0.3903,9.4542,Gabon,0
782,Cotonou,6.3667,2.4333,Benin,0
783,Pretoria,-25.7461,28.1881,South Africa,0
784,Vilnius,54.6872,25.28,Lithuania,0
785,Winnipeg,49.8844,-97.1464,Canada,1
786,Quebec City,46.8139,-71.2081,Canada,1
787,Chisinau,47.0228,28.8353,Moldova,0
788,Port Moresby,-9.4789,147.1494,Papua New Guinea,0
789,Skopje,41.9961,21.4317,Macedonia,0
790,Djibouti,11.5883,43.145,Djibouti,0
791,Gaza,31.5069,34.456,Gaza Strip,0
792,Kingston,17.9714,-76.7931,Jamaica,0
793,Rabat,34.0209,-6.8416,Morocco,0
794,San Salvador,13.6989,-89.1914,El Salvador,0
795,The Hague,52.08,4.31,Netherlands,0
796,Asunción,-25.3,-57.6333,Paraguay,0
797,Juba,4.85,31.6,South Sudan,0
798,Maseru,-29.31,27.48,Lesotho,0
799,Bissau,11.85,-15.5667,Guinea-Bissau,0
800,Valletta,35.8983,14.5125,Malta,0
801,Bratislava,48.1439,17.1097,Slovakia,0
802,Kitchener,43.4186,-80.4728,Canada,
803,Manama,26.225,50.5775,Bahrain,0
804,Tallinn,59.4372,24.7453,Estonia,0
805,Beirut,33.8869,35.5131,Lebanon,0
806,Cape Town,-33.9253,18.4239,South Africa,0
807,Tirana,41.3289,19.8178,Albania,0
808,Sarajevo,43.8564,18.4131,Bosnia and Herzegovina,0
809,Wellington,-41.2889,174.7772,New Zealand,0
810,Banjul,13.4531,-16.5775,The Gambia,0
811,Halifax,44.6475,-63.5906,Canada,1
812,Canberra,-35.2931,149.1269,Australia,0
813,Yamoussoukro,6.8161,-5.2742,Côte d'Ivoire,0
814,Victoria,48.4283,-123.3647,Canada,1
815,Nicosia,35.1725,33.365,Cyprus,0
816,Windhoek,-22.57,17.0836,Namibia,0
817,Saint-Denis,-20.8789,55.4481,Reunion,0
818,Porto-Novo,6.4972,2.605,Benin,0
819,Sucre,-19.0475,-65.26,Bolivia,0
820,Ljubljana,46.0514,14.5061,Slovenia,0
821,Nassau,25.0781,-77.3386,The Bahamas,0
822,Bloemfontein,-29.1167,26.2167,South Africa,0
823,Fort-de-France,14.6,-61.0667,Martinique,0
824,New Delhi,28.6139,77.209,India,0
825,Gaborone,-24.6581,25.9122,Botswana,0
826,Paramaribo,5.8522,-55.2039,Suriname,0
827,Dili,-8.5536,125.5783,Timor-Leste,0
828,Dodoma,-6.1731,35.7419,Tanzania,0
829,Georgetown,6.8058,-58.1508,Guyana,0
830,Gibraltar,36.1333,-5.35,Gibraltar,0
831,Malabo,3.75,8.7833,Equatorial Guinea,0
832,Suva,-18.1416,178.4419,Fiji,0
833,Nouméa,-22.2758,166.458,New Caledonia,0
834,Pristina,42.6633,21.1622,Kosovo,0
835,Male,4.1753,73.5089,Maldives,0
836,Port Louis,-20.1644,57.5042,Mauritius,0
837,Podgorica,42.4413,19.2629,Montenegro,0
838,Willemstad,12.108,-68.935,Curaçao,0
839,Bern,46.9481,7.4475,Switzerland,0
840,Gitega,-3.4283,29.925,Burundi,0
841,Reykjavík,64.1467,-21.94,Iceland,0
842,Luxembourg,49.6117,6.1319,Luxembourg,0
843,Papeete,-17.5334,-149.5667,French Polynesia,0
844,Praia,14.918,-23.509,Cabo Verde,0
845,Sri Jayewardenepura Kotte,6.9108,79.8878,Sri Lanka,0
846,Bridgetown,13.0975,-59.6167,Barbados,0
847,Moroni,-11.699,43.256,Comoros,0
848,Thimphu,27.4722,89.6361,Bhutan,0
849,Mbabane,-26.3208,31.1617,Swaziland,0
850,Honiara,-9.4319,159.9556,Solomon Islands,0
851,Port of Spain,10.6667,-61.5167,Trinidad and Tobago,0
852,Castries,14.0167,-60.9833,Saint Lucia,0
853,Putrajaya,2.93,101.69,Malaysia,0
854,Cayenne,4.933,-52.33,French Guiana,0
855,São Tomé,0.3361,6.7306,Sao Tome and Principe,0
856,Port-Vila,-17.7333,168.3167,Vanuatu,0
857,Bandar Seri Begawan,4.8903,114.9422,Brunei,0
858,Monaco,43.7333,7.4167,Monaco,0
859,Apia,-13.8333,-171.75,Samoa,0
860,Tarawa,1.3382,173.0176,Kiribati,0
861,Oranjestad,12.5186,-70.0358,Aruba,0
862,Saint Helier,49.1858,-2.11,Jersey,0
863,Mamoudzou,-12.7794,45.2272,Mayotte,0
864,Majuro,7.0833,171.3833,Marshall Islands,0
865,Douglas,54.145,-4.482,Isle Of Man,0
866,George Town,19.2866,-81.3744,Cayman Islands,0
867,Victoria,-4.6167,55.45,Seychelles,0
868,Kingstown,13.1578,-61.225,Saint Vincent and the Grenadines,0
869,Andorra la Vella,42.5,1.5,Andorra,0
870,Saint John’s,17.1167,-61.85,Antigua and Barbuda,0
871,Nuku‘alofa,-21.1333,-175.2,Tonga,0
872,Nuuk,64.1814,-51.6942,Greenland,0
873,Belmopan,17.2514,-88.7669,Belize,0
874,Roseau,15.3014,-61.3883,Dominica,0
875,Basseterre,17.3,-62.7333,Saint Kitts and Nevis,0
876,Tórshavn,62,-6.7833,Faroe Islands,0
877,Road Town,18.4167,-64.6167,British Virgin Islands,0
878,Pago Pago,-14.274,-170.7046,American Samoa,0
879,Grand Turk,21.4664,-71.136,Turks and Caicos Islands,0
880,Marigot,18.0706,-63.0847,Saint Martin,0
881,Palikir,6.9178,158.185,Federated States of Micronesia,0
882,Funafuti,-8.5167,179.2,Tuvalu,0
883,Vaduz,47.141,9.521,Liechtenstein,0
884,Lobamba,-26.4465,31.2064,Swaziland,0
885,Avarua,-21.207,-159.771,Cook Islands,0
886,Saint George’s,12.05,-61.75,Grenada,0
887,San Marino,43.9346,12.4473,San Marino,0
888,Tifariti,26.158,-10.567,Morocco,0
889,Philipsburg,18.0237,-63.0458,Sint Maarten,0
890,Capitol Hill,15.2137,145.7546,Northern Mariana Islands,0
891,Stanley,-51.7,-57.85,Falkland Islands (Islas Malvinas),0
892,Hamilton,32.2942,-64.7839,Bermuda,0
893,Vatican City,41.904,12.453,Vatican City,0
894,Alofi,-19.056,-169.921,Niue,0
895,Basse-Terre,16.0104,-61.7055,Guadeloupe,0
896,Hagåtña,13.4745,144.7504,Guam,0
897,Jamestown,-15.9251,-5.7179,"Saint Helena, Ascension, and Tristan da Cunha",0
898,Brades,16.7928,-62.2106,Montserrat,0
899,Yaren,-0.5477,166.9209,Nauru,0
900,Gustavia,17.8958,-62.8508,Saint Barthelemy,0
901,Ngerulmud,7.5006,134.6242,Palau,0
902,Saint-Pierre,46.7811,-56.1764,Saint Pierre and Miquelon,0
903,The Valley,18.2167,-63.05,Anguilla,0
904,Mata-Utu,-13.2825,-176.1736,Wallis and Futuna,0
905,Kingston,-29.0569,167.9617,Norfolk Island,0
906,Longyearbyen,78.2167,15.6333,Svalbard,0
907,Adamstown,-25.0667,-130.0833,Pitcairn Islands,0
908,Flying Fish Cove,-10.4167,105.7167,Christmas Island,0
909,King Edward Point,-54.2833,-36.5,South Georgia And South Sandwich Islands,0
910,Bareilly,28.364,79.415,India,
911,Quảng Hà,15.9333,108.2667,Vietnam,
912,Domaa-Ahenkro,7.2833,-2.8833,Ghana,
913,Oklahoma City,35.4676,-97.5136,United States,1
914,Xingcheng,24.1681,115.6669,China,0
915,Dongtai,32.8534,120.3037,China,0
916,Yingcheng,24.1878,113.4042,China,0
917,Chiba,35.6073,140.1064,Japan,1
918,Al Mijlad,11.0339,27.74,Sudan,
919,Pekanbaru,0.5092,101.4453,Indonesia,1
920,Luocheng,22.7645,111.5745,China,0
921,Dnipro,48.4675,35.04,Ukraine,1
922,Danyang,31.9948,119.575,China,
923,Godē,5.9527,43.5516,Ethiopia,
924,Natal,-6.9838,-60.2699,Brazil,
925,Nada,19.5,109.5833,China,0
926,Zamboanga City,6.9042,122.0761,Philippines,1
927,Kirkuk,35.4667,44.3167,Iraq,1
928,Bridgeport,41.1918,-73.1954,United States,
929,Wuchuan,21.4283,110.7749,China,
930,Huilong,31.8131,121.6574,China,0
931,Morelia,19.7683,-101.1894,Mexico,
932,Málaga,36.7194,-4.42,Spain,0
933,Cebu City,10.32,123.75,Philippines,1
934,Al Manşūrah,31.05,31.3833,Egypt,1
935,Coimbatore,11.0168,76.9558,India,
936,Santo Domingo Este,18.4855,-69.8734,Dominican Republic,1
937,Setagaya,35.6466,139.6532,Japan,
938,Sŏngnam,37.4333,127.15,South Korea,
939,Taishan,22.2486,112.785,China,
940,Teresina,-5.0949,-42.8042,Brazil,1
941,Solāpur,17.68,75.92,India,
942,Tangier,35.7767,-5.8039,Morocco,1
943,Kermānshāh,34.3142,47.065,Iran,1
944,Krasnodar,45.0333,38.9667,Russia,1
945,Baidoa,3.1167,43.65,Somalia,1
946,Gaalkacyo,6.7697,47.4308,Somalia,1
947,Anqiu,36.3619,119.1072,China,
948,Feicheng,36.186,116.772,China,
949,Seberang Jaya,5.4,100.4667,Malaysia,
950,El Alto,-16.5047,-68.1633,Bolivia,
951,Kitakyūshū,33.8833,130.8833,Japan,
952,Meishan,34.1736,112.839,China,0
953,Khartoum North,15.6333,32.6333,Sudan,
954,Kisangani,0.5153,25.1911,Congo (Kinshasa),1
955,Aguascalientes,21.876,-102.296,Mexico,1
956,Marrakech,31.63,-8.0089,Morocco,1
957,Donetsk,48.0028,37.8053,Ukraine,1
958,Trujillo,-8.112,-79.0288,Peru,1
959,New Orleans,30.0687,-89.9288,United States,
960,Taihe,30.8706,105.3784,China,0
961,Trichinopoly,10.7903,78.7047,India,
962,Xin’an,34.3662,118.3369,China,
963,Taihecun,45.768,131.0063,China,0
964,Kashgar,39.4681,75.9938,China,0
965,Naucalpan de Juárez,19.4753,-99.2378,Mexico,0
966,Çankaya,39.9244,32.8856,Turkey,0
967,Santiago de Cuba,20.0217,-75.8294,Cuba,1
968,Owerri,5.4833,7.0333,Nigeria,1
969,Padang,-0.95,100.3531,Indonesia,1
970,Qingzhou,36.6967,118.4797,China,
971,Lichuan,30.2965,108.9378,China,
972,Santiago del Estero,-27.7833,-64.2667,Argentina,1
973,Daye,30.1003,114.9699,China,
974,Hengzhou,22.6896,109.2674,China,0
975,Fort Worth,32.7817,-97.3474,United States,
976,Hartford,41.7661,-72.6834,United States,1
977,Esenyurt,41.047,28.658,Turkey,
978,Campo Grande,-20.4839,-54.615,Brazil,1
979,Zhuanghe,39.6896,122.9664,China,
980,Bobo-Dioulasso,11.1833,-4.2833,Burkina Faso,1
981,Ad Dammām,26.4333,50.1,Saudi Arabia,1
982,Quzhou,28.9545,118.8763,China,
983,Lhasa,29.6534,91.1719,China,1
984,Jiaozhou,36.2481,119.9625,China,
985,Bunia,1.5667,30.25,Congo (Kinshasa),1
986,Taguig City,14.52,121.05,Philippines,1
987,Cancún,21.1606,-86.8475,Mexico,0
988,Mérida,20.97,-89.62,Mexico,1
989,Yangchun,22.1717,111.7846,China,
990,Dengtalu,36.1386,114.1066,China,0
991,Morādābād,28.8389,78.7769,India,
992,Antipolo,14.5842,121.1763,Philippines,1
993,Abeokuta,7.1608,3.3483,Nigeria,1
994,Bucheon,37.5,126.7833,South Korea,0
995,Zhoushan,29.9887,122.2049,China,0
996,Tiruppūr,11.1085,77.3411,India,
997,Natal,-5.7833,-35.2,Brazil,1
998,Chihuahua,28.6353,-106.0889,Mexico,1
999,Klang,3.0333,101.45,Malaysia,
1000,As Sulaymānīyah,35.5572,45.4356,Iraq,1
1001,Gurgaon,28.456,77.029,India,
1002,Tucson,32.1541,-110.8787,United States,
1003,Hai’an,32.532,120.4604,China,0
1004,Ar Ramādī,33.4258,43.2992,Iraq,1
1005,Laiyang,36.9758,120.7136,China,
1006,Sale,34.0333,-6.8,Morocco,
1007,Jalandhar,31.2569,75.4432,India,
1008,Marseille,43.2964,5.37,France,1
1009,Bucaramanga,7.1333,-73,Colombia,1
1010,Kaifeng Chengguanzhen,34.8519,114.3481,China,0
1011,Ikeja,6.6186,3.3426,Nigeria,1
1012,Eskişehir,39.7767,30.5206,Turkey,1
1013,Saltillo,25.4231,-100.9919,Mexico,1
1014,Gaomi,36.3833,119.75,China,
1015,Liverpool,53.4075,-2.9919,United Kingdom,
1016,Ipoh,4.5972,101.075,Malaysia,1
1017,Oran,35.6969,-0.6331,Algeria,1
1018,Portsmouth,50.8058,-1.0872,United Kingdom,
1019,Southampton,50.9025,-1.4042,United Kingdom,
1020,Hermosillo,29.0989,-110.9542,Mexico,1
1021,Cochabamba,-17.3833,-66.1667,Bolivia,1
1022,Weichanglu,37.1792,119.9333,China,0
1023,Shache,38.4261,77.25,China,
1024,Wuxi,26.5895,111.8481,China,0
1025,Leping,28.9632,117.1203,China,0
1026,Hailun,47.4585,126.9632,China,0
1027,Macheng,31.1817,115.0189,China,
1028,Akure,7.25,5.195,Nigeria,1
1029,Ilorin,8.5,4.55,Nigeria,1
1030,Yuci,37.6823,112.7281,China,
1031,Saratov,51.5333,46.0167,Russia,1
1032,Erbil,36.1912,44.0092,Iraq,1
1033,Iguaçu,-22.74,-43.47,Brazil,
1034,Pasig City,14.575,121.0833,Philippines,1
1035,Dehui,44.5333,125.7,China,
1036,Kālkāji Devi,28.5485,77.2513,India,
1037,Bhubaneshwar,20.27,85.84,India,1
1038,Honolulu,21.3294,-157.846,United States,1
1039,Tongchuan,34.9057,108.9422,China,0
1040,Cheongju,36.6333,127.4833,South Korea,1
1041,Chengxiang,31.4515,121.1043,China,0
1042,Thessaloníki,40.6403,22.9347,Greece,1
1043,Warri,5.5167,5.75,Nigeria,0
1044,Sakai,34.5733,135.4831,Japan,
1045,Pointe-Noire,-4.8,11.85,Congo (Brazzaville),1
1046,Rongjiawan,29.1409,113.1087,China,0
1047,Mediouna,33.45,-7.51,Morocco,
1048,Butterworth,5.3992,100.3639,Malaysia,
1049,Renqiu,38.7094,116.1008,China,
1050,Xindi,29.8182,113.4653,China,
1051,Bhayandar,19.29,72.85,India,
1052,Wu’an,36.6941,114.1847,China,
1053,São Bernardo do Campo,-23.7,-46.55,Brazil,
1054,Māndvi,19.3,72.85,India,
1055,Barinas,8.6333,-70.2,Venezuela,1
1056,Zijinglu,34.7513,112.9854,China,0
1057,Gaoyou,32.7847,119.4432,China,0
1058,Culiacán,24.8069,-107.3939,Mexico,1
1059,Hejian,38.4451,116.0897,China,
1060,Yiyang,26.4103,112.3913,China,0
1061,Puxi,35.2125,114.735,China,0
1062,Androtsy,-24.1,46.3,Madagascar,
1063,McAllen,26.2252,-98.2467,United States,
1064,Qingping,34.538,113.3796,China,0
1065,Omaha,41.2627,-96.0529,United States,
1066,João Pessoa,-7.12,-34.88,Brazil,1
1067,Dongyang,29.2785,120.2282,China,0
1068,Querétaro,20.5875,-100.3928,Mexico,1
1069,Kraków,50.0614,19.9372,Poland,1
1070,George Town,5.4144,100.3292,Malaysia,1
1071,Abaeté,-19.1583,-45.4522,Brazil,
1072,Palermo,2.8917,-75.4375,Colombia,0
1073,Valencia,39.47,-0.3764,Spain,1
1074,Xigazê,29.25,88.8833,China,0
1075,El Paso,31.8476,-106.43,United States,
1076,Seyhan,36.9831,35.3328,Turkey,0
1077,Niigata,37.9161,139.0364,Japan,1
1078,Hempstead,40.6629,-73.6089,United States,
1079,Leeds,53.8003,-1.5497,United Kingdom,
1080,Hamamatsu,34.7108,137.7275,Japan,
1081,Bağcılar,41.0344,28.8564,Turkey,
1082,Xiangxiang,27.7389,112.5223,China,
1083,Bilbao,43.2569,-2.9236,Spain,0
1084,Chaohucun,31.6783,117.7353,China,
1085,Fuyang,30.0553,119.95,China,0
1086,Homs,34.7333,36.7167,Syria,1
1087,Küçükçekmece,41,28.8,Turkey,0
1088,Lubango,-14.9167,13.5,Angola,1
1089,Zouping,36.8625,117.7424,China,
1090,Khŭjand,40.2833,69.6333,Tajikistan,1
1091,San Luis Potosí,22.1511,-100.9761,Mexico,1
1092,Nottingham,52.9533,-1.15,United Kingdom,
1093,Cencheng,22.9297,111.0186,China,0
1094,Dali,25.6808,100.3003,China,
1095,Hamhŭng,39.9167,127.5333,North Korea,1
1096,Korla,41.7259,86.1746,China,0
1097,Rājshāhi,24.3667,88.6,Bangladesh,1
1098,Erzurum,39.9086,41.2769,Turkey,1
1099,Frankfurt,50.1106,8.6822,Germany,0
1100,Al ‘Ayn,24.2075,55.7447,United Arab Emirates,
1101,Songzi,30.1772,111.7732,China,
1102,Albuquerque,35.1054,-106.6465,United States,
1103,Patiāla,30.34,76.38,India,
1104,Laixi,36.8667,120.5333,China,
1105,Bahawalpur,29.3956,71.6836,Pakistan,0
1106,Zhongba,31.7761,104.7406,China,0
1107,Kaduna,10.5167,7.4333,Nigeria,1
1108,Qingnian,36.8494,115.7061,China,0
1109,San Pedro Sula,15.5,-88.0333,Honduras,1
1110,Qamdo,31.1375,97.1777,China,0
1111,Xinhualu,34.3962,113.7249,China,0
1112,Nerima,35.7355,139.6517,Japan,
1113,Guangshui,31.6189,113.8229,China,
1114,Pietermaritzburg,-29.6167,30.3833,South Africa,1
1115,Baardheere,2.3333,42.2833,Somalia,
1116,Tlajomulco de Zúñiga,20.4736,-103.4431,Mexico,0
1117,Samarinda,-0.5,117.1378,Indonesia,1
1118,Changhua,24.0667,120.5333,Taiwan,1
1119,Sizhan,39.0099,106.3694,China,
1120,Ciudad Guayana,8.3667,-62.65,Venezuela,0
1121,Cúcuta,7.8942,-72.5039,Colombia,1
1122,Dhūlia,20.8997,74.7697,India,
1123,Burco,9.5279,45.5345,Somalia,1
1124,Licheng,31.4174,119.4786,China,0
1125,Ōta-ku,35.5613,139.716,Japan,
1126,Thiruvananthapuram,8.4875,76.9525,India,1
1127,Tyumen,57.15,65.5333,Russia,1
1128,Nampula,-15.1167,39.2667,Mozambique,1
1129,Zaporizhzhia,47.85,35.1175,Ukraine,1
1130,Kyaukse,21.6131,96.1303,Myanmar,
1131,Chengguan,35.5256,113.6976,China,0
1132,Kumamoto,32.8031,130.7078,Japan,1
1133,Nehe,48.48,124.8738,China,0
1134,Osogbo,7.7667,4.5667,Nigeria,1
1135,Cabinda,-5.56,12.19,Angola,1
1136,Kermān,30.2833,57.0833,Iran,1
1137,Zunhua,40.1881,117.9593,China,0
1138,Rochester,43.168,-77.6162,United States,
1139,Valenzuela,14.7,120.98,Philippines,1
1140,Orūmīyeh,37.5486,45.0675,Iran,1
1141,Wugang,26.7345,110.6293,China,
1142,Shuangqiao,35.0833,112.5833,China,0
1143,Tshikapa,-6.4167,20.8,Congo (Kinshasa),
1144,São José dos Campos,-23.1789,-45.8869,Brazil,
1145,Comodoro Rivadavia,-45.8647,-67.4808,Argentina,0
1146,Cagayan de Oro,8.4833,124.65,Philippines,1
1147,Tondo,14.617,120.967,Philippines,
1148,Langzhong,31.5504,105.9938,China,0
1149,Qian’an,40.0059,118.6973,China,
1150,Lviv,49.8425,24.0322,Ukraine,1
1151,Sarasota,27.3387,-82.5432,United States,
1152,Reynosa,26.0922,-98.2778,Mexico,0
1153,Santo André,-23.6572,-46.5333,Brazil,
1154,An Najaf,32,44.33,Iraq,1
1155,Sagamihara,35.5667,139.3667,Japan,
1156,Guli,28.9008,120.0284,China,
1157,Mississauga,43.6,-79.65,Canada,
1158,Concepción,-36.8282,-73.0514,Chile,1
1159,Okayama,34.65,133.9167,Japan,1
1160,Anlu,31.2575,113.6783,China,0
1161,Mwanza,-2.5167,32.9,Tanzania,1
1162,Fresno,36.783,-119.7939,United States,
1163,Changsha,22.3762,112.6877,China,0
1164,Torreón,25.5394,-103.4486,Mexico,0
1165,Shihezi,44.3054,86.0804,China,0
1166,Enugu,6.4528,7.5111,Nigeria,1
1167,Jaboatão,-8.1803,-35.0014,Brazil,
1168,Tulsa,36.1283,-95.9042,United States,
1169,Yanggok,37.6333,127.2167,South Korea,
1170,Yatou,37.1653,122.4867,China,0
1171,Edogawa,35.7066,139.8683,Japan,
1172,Allentown,40.5961,-75.4756,United States,
1173,Ribeirão Prêto,-21.1783,-47.8067,Brazil,
1174,Xichang,27.8983,102.2706,China,0
1175,Latakia,35.5167,35.7833,Syria,1
1176,Bhiwandi,19.2967,73.0631,India,
1177,City of Parañaque,14.47,121.02,Philippines,1
1178,Dasmariñas,14.3294,120.9367,Philippines,
1179,Dayton,39.7805,-84.2003,United States,
1180,Sahāranpur,29.964,77.546,India,
1181,Warangal,17.9689,79.5941,India,
1182,Soledad,10.9167,-74.75,Colombia,0
1183,Osasco,-23.5328,-46.7919,Brazil,
1184,Dashiqiao,40.6328,122.5021,China,0
1185,Birmingham,33.5279,-86.7971,United States,
1186,Nampo,38.7333,125.4,North Korea,
1187,Shiliguri,26.71,88.43,India,
1188,Banjarmasin,-3.32,114.5925,Indonesia,1
1189,Sha Tin,22.3802,114.1898,Hong Kong,
1190,Salem,11.65,78.15,India,
1191,General Santos,6.1167,125.1667,Philippines,1
1192,Cocody,5.35,-3.9667,Côte d'Ivoire,
1193,Ḩamāh,35.1333,36.75,Syria,1
1194,Pendik,40.8747,29.235,Turkey,0
1195,Bacoor,14.4624,120.9645,Philippines,
1196,Vellore,12.9165,79.1325,India,
1197,Shishi,24.7355,118.6434,China,0
1198,Guadalupe,25.6775,-100.2597,Mexico,0
1199,Adachi,35.7749,139.8044,Japan,
1200,Qianxi,27.0284,106.0327,China,
1201,Tolyatti,53.5089,49.4222,Russia,
1202,Macau,22.2006,113.5461,Macau,
1203,Bauchi,10.3158,9.8442,Nigeria,1
1204,Hamilton,43.2567,-79.8692,Canada,
1205,Łódź,51.7769,19.4547,Poland,1
1206,Miluo Chengguanzhen,28.8049,113.0745,China,0
1207,Gaizhou,40.4019,122.3499,China,0
1208,Karbalā’,32.6167,44.0333,Iraq,1
1209,Leling,37.7333,117.2167,China,0
1210,Jianshe,34.2189,113.7693,China,0
1211,Shizuoka,34.9756,138.3828,Japan,1
1212,Charleston,32.8168,-79.9687,United States,
1213,Jingcheng,32.0058,120.2547,China,0
1214,Kochi,9.97,76.28,India,
1215,Mar del Plata,-38,-57.55,Argentina,0
1216,Cape Coral,26.6443,-81.9957,United States,
1217,Tasikmalaya,-7.3161,108.1975,Indonesia,
1218,Rasht,37.2808,49.5831,Iran,1
1219,Xinmin,41.9952,122.8224,China,
1220,Shanhu,29.5908,120.8176,China,0
1221,Zhongshu,27.8116,106.4133,China,
1222,Gorakhpur,26.7637,83.4039,India,
1223,Zaragoza,41.65,-0.8833,Spain,1
1224,Wrocław,51.11,17.0325,Poland,1
1225,Acapulco de Juárez,16.8636,-99.8825,Mexico,0
1226,Bahār,34.9072,48.4414,Iran,0
1227,Kumul,42.8193,93.5151,China,0
1228,Murcia,37.9861,-1.1303,Spain,1
1229,Pinghu,30.7005,121.0104,China,
1230,Guankou,30.9933,103.624,China,
1231,Tlaquepaque,20.6167,-103.3167,Mexico,0
1232,Songyang,34.4603,113.028,China,0
1233,Ch’ŏngjin,41.7833,129.7667,North Korea,1
1234,Puyang Chengguanzhen,35.7004,114.98,China,0
1235,Qionghu,28.8417,112.3595,China,0
1236,Zhaodong,46.0635,125.9773,China,0
1237,Narela,28.8527,77.0929,India,
1238,Huambo,-12.7767,15.7347,Angola,1
1239,Wenchang,31.054,116.9507,China,0
1240,Villavicencio,4.15,-73.6333,Colombia,1
1241,Shulan,44.4079,126.9429,China,0
1242,Tlalnepantla,19.5367,-99.1947,Mexico,0
1243,Catia La Mar,10.6,-67.0333,Venezuela,0
1244,Sargodha,32.0836,72.6711,Pakistan,0
1245,Al Hufūf,25.3833,49.5833,Saudi Arabia,
1246,Durango,24.025,-104.6675,Mexico,1
1247,Jalingo,8.9195,11.3264,Nigeria,1
1248,Bouaké,7.6833,-5.0167,Côte d'Ivoire,1
1249,Mazatlán,23.2167,-106.4167,Mexico,0
1250,San Jose del Monte,14.8139,121.0453,Philippines,
1251,Ansan,37.3167,126.8333,South Korea,
1252,Abomey-Calavi,6.4486,2.3556,Benin,
1253,Lingbao Chengguanzhen,34.5221,110.8786,China,0
1254,Hwasu-dong,37.1997,126.8314,South Korea,
1255,Sialkot City,32.4925,74.5311,Pakistan,0
1256,Huế,16.4667,107.5792,Vietnam,1
1257,Bulawayo,-20.17,28.58,Zimbabwe,1
1258,Xiping,25.6005,103.8166,China,0
1259,Sanhe,39.9808,117.0701,China,
1260,Ch’ŏnan,36.8167,127.1667,South Korea,
1261,Contagem,-19.9319,-44.0539,Brazil,
1262,Jieshou,33.2605,115.3618,China,
1263,Selçuklu,37.8814,32.4922,Turkey,0
1264,Ērer Sātā,9.5667,41.3833,Ethiopia,
1265,Honchō,35.6946,139.9826,Japan,
1266,Düsseldorf,51.2333,6.7833,Germany,1
1267,Izhevsk,56.85,53.2167,Russia,1
1268,Guntūr,16.3008,80.4428,India,
1269,Guixi,28.2861,117.2083,China,0
1270,Sorocaba,-23.5017,-47.4581,Brazil,
1271,Yıldırım,40.11,29.0821,Turkey,0
1272,Petaling Jaya,3.0972,101.6444,Malaysia,
1273,Tengyue,25.0208,98.4972,China,0
1274,Wuxue,29.8518,115.5539,China,0
1275,Rasūlpur,28.57,77.32,India,
1276,Bhāvnagar,21.76,72.15,India,
1277,Brahmapur,19.315,84.7941,India,
1278,Qufu,35.6,116.9833,China,
1279,Gaobeidian,39.3257,115.8678,China,
1280,Ruiming,25.8833,116.0333,China,
1281,Columbia,34.0378,-80.9036,United States,1
1282,Concord,37.9722,-122.0016,United States,
1283,Noida,28.57,77.32,India,
1284,Gold Coast,-28.0167,153.4,Australia,
1285,Xinshi,31.0236,113.1079,China,0
1286,Ta‘izz,13.5789,44.0219,Yemen,1
1287,Aracaju,-10.9167,-37.05,Brazil,1
1288,Jeonju,35.8167,127.15,South Korea,1
1289,Bhāngar,22.58,88.42,India,
1290,Jin’e,29.3395,105.2868,China,0
1291,Barnaul,53.3333,83.75,Russia,1
1292,Makati City,14.5567,121.0214,Philippines,1
1293,Rotterdam,51.9167,4.5,Netherlands,0
1294,Changping,40.2248,116.1944,China,
1295,Benghazi,32.1167,20.0667,Libya,1
1296,Kryvyi Rih,47.9086,33.3433,Ukraine,0
1297,Ḩalwān,29.8453,31.3333,Egypt,
1298,Colorado Springs,38.8674,-104.7605,United States,
1299,Suohe,34.7879,113.392,China,0
1300,Chimalhuacán,19.4167,-98.9,Mexico,0
1301,Xinxing,39.8734,124.1453,China,0
1302,Bhilai,21.3667,81.7167,India,
1303,Mangalore,12.902,74.8253,India,
1304,Port-Bouët,5.2667,-3.9,Côte d'Ivoire,
1305,Zhuangyuan,37.3056,120.8275,China,0
1306,Glasgow,55.8611,-4.25,United Kingdom,
1307,Namangan,41.0011,71.6683,Uzbekistan,1
1308,Ulyanovsk,54.3167,48.3667,Russia,1
1309,Tân An,10.905,106.6994,Vietnam,
1310,Irkutsk,52.2833,104.2833,Russia,1
1311,Bhilai,21.21,81.38,India,
1312,Nāgercoil,8.1833,77.4119,India,
1313,Jos,9.9167,8.8903,Nigeria,1
1314,Pontianak,-0.0206,109.3414,Indonesia,1
1315,Bazhou,39.1235,116.386,China,
1316,Turpan,42.9512,89.1895,China,0
1317,Villa Nueva,14.5314,-90.5964,Guatemala,0
1318,Las Piñas City,14.45,120.98,Philippines,
1319,Springfield,42.1155,-72.5395,United States,
1320,Knoxville,35.9692,-83.9496,United States,
1321,Meihekou,42.5279,125.678,China,0
1322,Jurong,31.9579,119.1595,China,
1323,Feira de Santana,-12.25,-38.95,Brazil,
1324,Khabarovsk,48.4833,135.0667,Russia,1
1325,Zhugang,28.1277,121.2288,China,0
1326,Leipzig,51.34,12.375,Germany,0
1327,Xinji,37.9423,115.2118,China,
1328,Serang,-6.12,106.1503,Indonesia,1
1329,Jambi,-1.59,103.61,Indonesia,1
1330,Kandahār,31.62,65.7158,Afghanistan,1
1331,San Miguel de Tucumán,-26.8167,-65.2167,Argentina,1
1332,Gothenburg,57.7075,11.9675,Sweden,1
1333,Yaroslavl,57.6167,39.85,Russia,1
1334,Baton Rouge,30.442,-91.1311,United States,1
1335,Zhangshu,28.0667,115.5375,China,
1336,Vladivostok,43.1333,131.9,Russia,1
1337,Ogden,41.2279,-111.9682,United States,
1338,Kuantan,3.8167,103.3333,Malaysia,1
1339,Raurkela,22.2492,84.8828,India,
1340,Cuttack,20.5236,85.7881,India,
1341,Ar Rayyān,25.25,51.4,Qatar,1
1342,Haifa,32.8192,34.9992,Israel,1
1343,Malanje,-9.5333,16.35,Angola,1
1344,Bacolod,10.6765,122.9509,Philippines,1
1345,Zhuozhou,39.4887,115.9918,China,
1346,Grand Rapids,42.9619,-85.6562,United States,
1347,Uberlândia,-18.9231,-48.2886,Brazil,
1348,Albany,42.6664,-73.7987,United States,1
1349,Tianchang,32.6853,119.0041,China,0
1350,Kawaguchi,35.8077,139.7241,Japan,
1351,Itabashi,35.7512,139.7093,Japan,
1352,Suginami-ku,35.6995,139.6364,Japan,
1353,Cimahi,-6.8712,107.5548,Indonesia,
1354,Tuxtla,16.7528,-93.1167,Mexico,1
1355,Garoua,9.3,13.4,Cameroon,1
1356,Ḩafr al Bāţin,28.4342,45.9636,Saudi Arabia,
1357,Tumkūr,13.34,77.1,India,
1358,Balikpapan,-1.2768,116.8277,Indonesia,
1359,Durban,-29.8833,31.05,South Africa,
1360,Kagoshima,31.6,130.55,Japan,1
1361,Al Ḩillah,23.4895,46.7564,Saudi Arabia,
1362,Makhachkala,42.9833,47.4833,Russia,1
1363,Sihui,23.3448,112.6956,China,
1364,Irapuato,20.6667,-101.35,Mexico,0
1365,Brampton,43.6833,-79.7667,Canada,
1366,Luocheng,30.9793,104.28,China,0
1367,Mbale,1.0806,34.175,Uganda,1
1368,Pereira,4.8143,-75.6946,Colombia,1
1369,Bakersfield,35.3529,-119.0359,United States,
1370,Uvira,-3.4,29.15,Congo (Kinshasa),
1371,Dortmund,51.5167,7.4667,Germany,0
1372,Chuxiong,25.0461,101.5436,China,
1373,Mission Viejo,33.6096,-117.6551,United States,
1374,Zāhedān,29.4964,60.8628,Iran,1
1375,New Haven,41.3113,-72.9246,United States,
1376,Shah Alam,3.0722,101.5167,Malaysia,1
1377,Wenlan,23.3989,103.3631,China,0
1378,Cuiabá,-15.5958,-56.0969,Brazil,1
1379,Shangzhi,45.2116,127.962,China,0
1380,Essen,51.4508,7.0131,Germany,0
1381,Botou,38.074,116.57,China,
1382,Mymensingh,24.7539,90.4031,Bangladesh,1
1383,Anyang,37.3833,126.9333,South Korea,
1384,Durgāpur,23.55,87.32,India,
1385,Port Sudan,19.6167,37.2167,Sudan,1
1386,Al Mafraq,32.3399,36.2052,Jordan,1
1387,Puente Alto,-33.6167,-70.5667,Chile,0
1388,Dehra Dūn,30.345,78.029,India,1
1389,Aţ Ţā’if,21.2751,40.4062,Saudi Arabia,
1390,Wancheng,18.8,110.4,China,0
1391,Hachiōji,35.6664,139.316,Japan,
1392,Xiulin,29.7211,112.4037,China,
1393,Fu’an,27.1,119.6333,China,0
1394,Tomsk,56.4886,84.9522,Russia,1
1395,Tonalá,20.6167,-103.2333,Mexico,0
1396,Juiz de Fora,-21.7619,-43.3494,Brazil,
1397,Worcester,42.2705,-71.8079,United States,
1398,Kolwezi,-10.7167,25.4667,Congo (Kinshasa),1
1399,Chāpra,25.7848,84.7274,India,
1400,Bristol,51.4536,-2.5975,United Kingdom,
1401,Luofeng,37.359,120.396,China,0
1402,Lingyuan,41.2407,119.3957,China,
1403,Irbid,32.55,35.85,Jordan,1
1404,Al Maḩallah al Kubrá,30.9686,31.1636,Egypt,
1405,Wencheng,19.6167,110.75,China,0
1406,Bremen,53.0833,8.8,Germany,1
1407,Ciudad Bolívar,8.1219,-63.55,Venezuela,1
1408,Orenburg,51.7667,55.1,Russia,1
1409,Shenzhou,38.0005,115.5541,China,
1410,Āsansol,23.68,86.99,India,
1411,Kuiju,36.8528,119.3904,China,0
1412,Zhenzhou,32.2739,119.1619,China,0
1413,Surakarta,-7.5667,110.8167,Indonesia,
1414,Dresden,51.05,13.74,Germany,1
1415,Kolhāpur,16.6917,74.2333,India,
1416,Benguela,-12.55,13.4167,Angola,1
1417,Ensenada,31.8578,-116.6058,Mexico,0
1418,Kemerovo,55.3667,86.0667,Russia,1
1419,Lanxi,29.2167,119.4722,China,
1420,Dangyang,30.8258,111.791,China,
1421,Farīdpur,23.602,89.833,Bangladesh,
1422,Herāt,34.3419,62.2031,Afghanistan,1
1423,Luanzhou,39.7396,118.6978,China,0
1424,Hamadān,34.8064,48.5161,Iran,1
1425,Novokuznetsk,53.7667,87.1333,Russia,
1426,Nellore,14.45,79.99,India,
1427,Palma,39.5667,2.65,Spain,1
1428,Chiclayo,-6.763,-79.8366,Peru,1
1429,Nānded,19.15,77.3,India,
1430,Ajmer,26.4499,74.6399,India,
1431,Al Ḩudaydah,14.8022,42.9511,Yemen,1
1432,Kimhae,35.2342,128.8811,South Korea,
1433,Provo,40.2457,-111.6457,United States,
1434,Rustenburg,-25.6667,27.2428,South Africa,
1435,Amrāvati,20.9258,77.7647,India,
1436,Poznań,52.4083,16.9336,Poland,1
1437,Huanghua,38.371,117.3329,China,0
1438,Muntinlupa City,14.38,121.05,Philippines,1
1439,Londrina,-23.31,-51.1628,Brazil,
1440,Nansana,0.3639,32.5286,Uganda,
1441,Tabūk,28.3972,36.5789,Saudi Arabia,1
1442,Heroica Matamoros,25.8797,-97.5042,Mexico,0
1443,Akron,41.0798,-81.5219,United States,
1444,Samarkand,39.6547,66.9758,Uzbekistan,1
1445,Xingcheng,40.6189,120.7205,China,
1446,Kaiyuan,42.538,124.0371,China,
1447,Hannover,52.3667,9.7167,Germany,1
1448,Valledupar,10.4833,-73.25,Colombia,1
1449,Fengcheng,40.4543,124.0646,China,
1450,Ixtapaluca,19.3186,-98.8822,Mexico,0
1451,Ghulja,43.9,81.35,China,0
1452,City of Calamba,14.2167,121.1667,Philippines,
1453,Ananindeua,-1.3658,-48.3719,Brazil,
1454,Xiangyang,34.2999,108.4816,China,
1455,Fuding,27.2,120.2,China,0
1456,An Nāşirīyah,31.0439,46.2575,Iraq,1
1457,Al Ḩillah,32.4833,44.4333,Iraq,1
1458,Ibagué,4.4333,-75.2333,Colombia,1
1459,Ryazan,54.63,39.7425,Russia,1
1460,Kassala,15.45,36.4,Sudan,1
1461,Tripoli,34.4367,35.8344,Lebanon,1
1462,Chang’an,29.4761,113.448,China,0
1463,Kōtō-ku,35.6728,139.8173,Japan,
1464,Naberezhnyye Chelny,55.7,52.3333,Russia,
1465,Aksu,41.185,80.2904,China,0
1466,Salta,-24.7833,-65.4167,Argentina,1
1467,Astrakhan,46.35,48.035,Russia,1
1468,Gulbarga,17.329,76.825,India,
1469,Cadaado,6.1403,46.6256,Somalia,
1470,Lyon,45.76,4.84,France,1
1471,Wuhai,39.6844,106.8158,China,0
1472,Mingguang,32.7816,117.9899,China,
1473,Antwerp,51.2178,4.4003,Belgium,0
1474,Yazd,31.8822,54.3397,Iran,1
1475,Touba,14.8667,-15.8833,Senegal,
1476,Ardabīl,38.2425,48.29,Iran,1
1477,Bīkaner,28.0167,73.3119,India,
1478,Agartala,23.8333,91.2833,India,1
1479,Ndola,-12.9667,28.6333,Zambia,1
1480,Himeji,34.8167,134.6833,Japan,
1481,Palm Bay,27.9631,-80.6593,United States,
1482,Tultitlán de Mariano Escobedo,19.645,-99.1694,Mexico,0
1483,Ailan Mubage,43.908,81.2777,China,0
1484,Bandar ‘Abbās,27.1833,56.2667,Iran,1
1485,Bắc Ninh,21.1833,106.05,Vietnam,1
1486,Ciudad Apodaca,25.7817,-100.1886,Mexico,0
1487,Santa Teresa del Tuy,10.2333,-66.65,Venezuela,0
1488,Maipú,-33.5167,-70.7667,Chile,
1489,Penza,53.2,45,Russia,1
1490,Soacha,4.5872,-74.2214,Colombia,0
1491,Al Qaţīf,26.556,49.996,Saudi Arabia,
1492,Port Said,31.2625,32.3061,Egypt,1
1493,Loni,28.75,77.28,India,
1494,Yucheng,36.9329,116.6403,China,0
1495,Sevastopol,44.605,33.5225,Ukraine,1
1496,Meknès,33.895,-5.5547,Morocco,
1497,Mixco,14.6338,-90.6146,Guatemala,0
1498,Arāk,34.0917,49.6892,Iran,1
1499,Pohang,36.0322,129.365,South Korea,0
1500,Longzhou,30.32,112.23,China,
1501,Anda,46.4078,125.3252,China,0
1502,Jinghong,22.0057,100.7948,China,
1503,Sheffield,53.3808,-1.4703,United Kingdom,
1504,Utsunomiya,36.5551,139.8826,Japan,1
1505,Suez,29.9667,32.55,Egypt,1
1506,Nuremberg,49.4539,11.0775,Germany,0
1507,Surrey,49.19,-122.8489,Canada,
1508,Heshan,22.7697,112.9578,China,
1509,Ujjain,23.17,75.79,India,
1510,Jiaji,19.2431,110.4642,China,0
1511,Santa Marta,11.2419,-74.2053,Colombia,1
1512,Joinvile,-26.3204,-48.8437,Brazil,
1513,Beining,41.5961,121.7928,China,
1514,Des Moines,41.5725,-93.6105,United States,1
1515,Hải Dương,20.9397,106.3306,Vietnam,1
1516,Carrefour,18.5344,-72.4094,Haiti,
1517,Maturín,9.7423,-63.1889,Venezuela,1
1518,Homyel’,52.4453,30.9842,Belarus,1
1519,Leicester,52.6344,-1.1319,United Kingdom,
1520,Yanji,42.9044,129.5067,China,0
1521,Macapá,0.033,-51.0653,Brazil,1
1522,Yicheng,31.7117,112.2551,China,0
1523,Ulhāsnagar,19.22,73.15,India,
1524,Al ‘Āshir min Ramaḑān,30.3065,31.7415,Egypt,
1525,Lipetsk,52.6167,39.6,Russia,1
1526,Al ‘Amārah,31.8333,47.15,Iraq,1
1527,Bhīlwāra,25.35,74.63,India,
1528,Encheng,22.1879,112.3131,China,0
1529,Murrieta,33.5719,-117.1909,United States,
1530,Aden,12.8,45.0333,Yemen,1
1531,Kitwe,-12.8167,28.2,Zambia,
1532,Matsuyama,33.8333,132.7667,Japan,1
1533,Jhānsi,25.4486,78.5696,India,
1534,Pingtung,22.6761,120.4942,Taiwan,1
1535,Lapu-Lapu City,10.3127,123.9488,Philippines,1
1536,Matsudo,35.7876,139.9032,Japan,
1537,Montería,8.75,-75.8833,Colombia,1
1538,Ichikawa,35.7219,139.9311,Japan,
1539,Nagqu,31.4766,92.0569,China,0
1540,Imus,14.4297,120.9367,Philippines,
1541,Hsinchu,24.8167,120.9833,Taiwan,1
1542,Kimberley,-28.7383,24.7639,South Africa,1
1543,Jammu,32.73,74.87,India,1
1544,Belas,-8.9983,13.265,Angola,
1545,Talatona,-8.9167,13.1833,Angola,
1546,Ile-Ife,7.4667,4.5667,Nigeria,0
1547,Purnea,25.778,87.476,India,
1548,Kirov,58.6,49.65,Russia,1
1549,Mykolaiv,46.975,31.995,Ukraine,1
1550,Meicheng,30.6412,116.5689,China,0
1551,Tinnevelly,8.7136,77.7567,India,
1552,Niterói,-22.8833,-43.1036,Brazil,
1553,Farāh,32.3436,62.1194,Afghanistan,1
1554,Sukkur,27.7061,68.8483,Pakistan,0
1555,Oujda-Angad,34.6867,-1.9114,Morocco,1
1556,Taozhou,30.8956,119.411,China,0
1557,Marka,1.6833,44.75,Somalia,1
1558,Higashi-ōsaka,34.6794,135.6008,Japan,
1559,Johor Bahru,1.4556,103.7611,Malaysia,1
1560,Hongjiang,27.1167,109.95,China,
1561,Bello,6.3333,-75.5667,Colombia,0
1562,Chimbote,-9.0745,-78.5936,Peru,
1563,Duisburg,51.4347,6.7625,Germany,0
1564,Qaraghandy,49.8028,73.1056,Kazakhstan,1
1565,Mesa,33.4015,-111.7178,United States,
1566,Toulouse,43.6045,1.444,France,1
1567,Likasi,-10.9833,26.7333,Congo (Kinshasa),
1568,Dengtacun,41.4237,123.3203,China,
1569,Lembok,-8.565,116.351,Indonesia,
1570,Zhijiang,30.4271,111.7506,China,
1571,Chengjiao,35.4043,114.0593,China,0
1572,Beipiao,41.802,120.7621,China,
1573,Suoluntun,45.2279,124.8432,China,
1574,Staten Island,40.5834,-74.1496,United States,
1575,Kota Bharu,6.1333,102.25,Malaysia,1
1576,Ciudad López Mateos,19.55,-99.2833,Mexico,0
1577,Celaya,20.5222,-100.8122,Mexico,0
1578,Vinh,18.6667,105.6667,Vietnam,1
1579,Duyun,26.2672,107.5143,China,
1580,Los Mochis,25.7835,-108.9937,Mexico,0
1581,‘Ajmān,25.4136,55.4456,United Arab Emirates,1
1582,Nyala,12.05,24.8833,Sudan,1
1583,Larkana,27.5583,68.2111,Pakistan,0
1584,Wichita,37.6895,-97.3443,United States,
1585,Nishinomiya-hama,34.7376,135.3416,Japan,
1586,Cheboksary,56.1333,47.25,Russia,1
1587,Yuanping,38.7299,112.7134,China,
1588,Toledo,41.6638,-83.5827,United States,
1589,Yueqing,28.1188,120.9621,China,
1590,Edinburgh,55.9533,-3.1892,United Kingdom,
1591,Belgaum,15.85,74.5,India,
1592,Tula,54.2,37.6167,Russia,1
1593,Gdańsk,54.3475,18.6453,Poland,1
1594,Shahe,36.8622,114.502,China,
1595,Serra,-20.1289,-40.3078,Brazil,
1596,Brookhaven,40.832,-72.9517,United States,
1597,Gaoping,35.7911,112.9259,China,
1598,Dunhua,43.3667,128.2333,China,0
1599,Az Zarqā’,32.0833,36.1,Jordan,1
1600,Sylhet,24.9,91.8667,Bangladesh,1
1601,Kaihua,23.3715,104.2437,China,0
1602,Caerdydd,51.4817,-3.1792,United Kingdom,
1603,Jāmnagar,22.47,70.07,India,
1604,Fuyuan,48.3614,134.2875,China,0
1605,Gaya,24.75,85.01,India,
1606,Florianópolis,-27.6122,-48.4853,Brazil,1
1607,Chiniot,31.7194,72.9842,Pakistan,0
1608,Jiannan,31.3446,104.1994,China,0
1609,Ōita,33.2333,131.6067,Japan,1
1610,Berbera,10.4356,45.0164,Somalia,
1611,Kaliningrad,54.7003,20.4531,Russia,1
1612,Mbeya,-8.9,33.45,Tanzania,1
1613,Nangong,37.3606,115.3803,China,
1614,Ambattūr,13.1143,80.1548,India,
1615,Katlehong,-26.3333,28.15,South Africa,
1616,Kurashiki,34.5833,133.7667,Japan,
1617,Barura,23.375,91.0583,Bangladesh,
1618,San Juan,-31.5342,-68.5261,Argentina,1
1619,Vila Velha,-20.3364,-40.2936,Brazil,
1620,Mazār-e Sharīf,36.7,67.1167,Afghanistan,1
1621,Shekhupura,31.7111,73.9878,Pakistan,0
1622,Worthing,50.8147,-0.3714,United Kingdom,
1623,Piura,-5.2,-80.6333,Peru,1
1624,Mandaluyong City,14.58,121.03,Philippines,1
1625,Kartal,40.8872,29.19,Turkey,0
1626,Jiaojiangcun,28.6804,121.45,China,
1627,Harrisburg,40.2752,-76.8843,United States,1
1628,Laohekou,32.3849,111.6695,China,
1629,Kâğıthane,41.0719,28.9664,Turkey,
1630,Agege,6.6219,3.3258,Nigeria,0
1631,Angeles City,15.1472,120.5847,Philippines,1
1632,São José do Rio Prêto,-20.8081,-49.3811,Brazil,
1633,Pasay City,14.55,121,Philippines,1
1634,Beian,48.2395,126.5037,China,0
1635,Fujin,47.2489,132.0341,China,0
1636,Salt Lake City,22.61,88.4,India,
1637,Balashikha,55.8167,37.9667,Russia,
1638,Xiaoyi,37.1449,111.7718,China,
1639,Port St. Lucie,27.2796,-80.3884,United States,
1640,Lanús,-34.7,-58.4,Argentina,0
1641,Qingzhen,26.5555,106.4646,China,
1642,Jiangshan,28.7412,118.6225,China,
1643,Ba‘qūbah,33.75,44.6333,Iraq,1
1644,Katsushika-ku,35.7434,139.8472,Japan,
1645,Buraydah,26.3333,43.9667,Saudi Arabia,1
1646,Longjiang,27.582,120.5488,China,
1647,Tân Uyên,11.0508,106.7636,Vietnam,0
1648,Long Beach,33.7977,-118.167,United States,
1649,Marikina City,14.65,121.1,Philippines,1
1650,Manado,1.4931,124.8413,Indonesia,1
1651,Campos,-21.7539,-41.3239,Brazil,
1652,Kanazawa,36.5611,136.6564,Japan,1
1653,Iloilo,10.7167,122.5667,Philippines,1
1654,Reno,39.5497,-119.8483,United States,
1655,Calabar,4.9767,8.3383,Nigeria,1
1656,Kuqa,41.7156,82.9322,China,0
1657,Piraeus,37.943,23.6469,Greece,0
1658,Madison,43.0822,-89.393,United States,1
1659,Jalgaon,21.004,75.568,India,
1660,Cranbourne,-38.0996,145.2834,Australia,
1661,Kowloon City,22.3282,114.1916,Hong Kong,
1662,Mauá,-23.6678,-46.4608,Brazil,
1663,Fukuyama,34.4833,133.3667,Japan,
1664,Xicheng,23.3629,103.1545,China,0
1665,Kikwit,-5.0386,18.8181,Congo (Kinshasa),
1666,Amagasaki,34.7333,135.4,Japan,
1667,Pyeongtaek,36.9922,127.1128,South Korea,
1668,Kurnool,15.83,78.05,India,
1669,Little Rock,34.7256,-92.3577,United States,1
1670,Melaka,2.1944,102.2486,Malaysia,1
1671,General Trias,14.3833,120.8833,Philippines,
1672,Jian’ou,27.0387,118.3215,China,0
1673,Esenler,41.0339,28.8903,Turkey,
1674,Huadian,42.9633,126.7478,China,
1675,Ţanţā,30.7833,31,Egypt,1
1676,Kota Kinabalu,5.975,116.0725,Malaysia,1
1677,Kursk,51.7167,36.1833,Russia,1
1678,Minzhu,43.7192,127.337,China,0
1679,Stavropol,45.05,41.9833,Russia,1
1680,Udaipur,24.58,73.68,India,
1681,Mogi das Cruzes,-23.5228,-46.1878,Brazil,
1682,Mariupol,47.0958,37.5494,Ukraine,0
1683,Eslāmshahr,35.5606,51.2347,Iran,0
1684,San Nicolás de los Garza,25.75,-100.2833,Mexico,0
1685,Greenville,34.8354,-82.3646,United States,
1686,Sham Shui Po,22.3307,114.1622,Hong Kong,
1687,Barcelona,10.1333,-64.6833,Venezuela,1
1688,Constantine,36.365,6.6147,Algeria,1
1689,Tanbei,35.0907,112.9317,China,0
1690,Ado-Ekiti,7.6167,5.2167,Nigeria,1
1691,Batman,37.887,41.132,Turkey,1
1692,Bandung,-6.912,107.6097,Indonesia,1
1693,Baisha,29.4774,119.2853,China,
1694,Avcılar,40.9792,28.7214,Turkey,
1695,Denton,33.2175,-97.1418,United States,
1696,Rodriguez,14.7167,121.1167,Philippines,
1697,Taoyuan District,24.9913,121.3143,Taiwan,1
1698,Yongji,34.867,110.4417,China,
1699,Chauddagram,23.2283,91.3133,Bangladesh,
1700,Danjiangkou,32.5408,111.5098,China,
1701,Kahramanmaraş,37.5833,36.9333,Turkey,1
1702,Fujisawa,35.35,139.4667,Japan,
1703,Andijon,40.7833,72.3333,Uzbekistan,1
1704,Mathura,27.4925,77.6736,India,
1705,Zürich,47.3744,8.5411,Switzerland,1
1706,Diadema,-23.6861,-46.6106,Brazil,
1707,Machida,35.7106,139.4386,Japan,
1708,Ulan-Ude,51.8272,107.6064,Russia,1
1709,Spokane,47.6671,-117.433,United States,
1710,Ning’an,44.3439,129.4656,China,0
1711,Zhangjiakou Shi Xuanhua Qu,40.5944,115.0243,China,0
1712,Sunch’ŏn,39.4167,125.9333,North Korea,
1713,Jinchang,38.5168,102.1866,China,0
1714,Kashiwa,35.8676,139.9758,Japan,
1715,Guangming,45.3357,122.7765,China,0
1716,Sāngli,16.8667,74.5667,India,
1717,Oakland,37.7904,-122.2166,United States,
1718,Beira,-19.8333,34.85,Mozambique,1
1719,Kupang,-10.1702,123.6077,Indonesia,1
1720,Jeju,33.5097,126.5219,South Korea,1
1721,Davangere,14.4666,75.9242,India,
1722,Caxias do Sul,-29.1667,-51.1833,Brazil,
1723,Manizales,5.1,-75.55,Colombia,1
1724,Yogyakarta,-7.8014,110.3644,Indonesia,1
1725,Calicut,11.25,75.77,India,0
1726,Koumassi,5.3,-3.95,Côte d'Ivoire,
1727,Veracruz,19.1903,-96.1533,Mexico,0
1728,Zanjān,36.6789,48.5056,Iran,1
1729,Welkom,-27.9831,26.7208,South Africa,
1730,Shinagawa-ku,35.6092,139.7302,Japan,
1731,Kenitra,34.25,-6.5833,Morocco,
1732,Agadir,30.4333,-9.6,Morocco,1
1733,Somolu,6.5408,3.3872,Nigeria,0
1734,Uyo,5.05,7.9333,Nigeria,1
1735,Sokoto,13.0622,5.2339,Nigeria,1
1736,Lancaster,40.042,-76.3012,United States,
1737,Masan,35.1833,128.55,South Korea,
1738,Huili Chengguanzhen,26.6614,102.2469,China,0
1739,Sidi Bouzid,35.0381,9.4858,Tunisia,1
1740,Cusco,-13.525,-71.9722,Peru,1
1741,Porto Velho,-8.7619,-63.9039,Brazil,1
1742,Sihŭng,37.3799,126.8029,South Korea,
1743,Xalapa,19.54,-96.9275,Mexico,1
1744,Florencio Varela,-34.8167,-58.2833,Argentina,
1745,Tver,56.8578,35.9219,Russia,1
1746,Trabzon,41.005,39.7225,Turkey,1
1747,Malatya,38.3486,38.3194,Turkey,1
1748,Xunyang,32.8357,109.359,China,
1749,Uijeongbu,37.7486,127.0389,South Korea,
1750,Akola,20.7,77,India,
1751,Aomori,40.8223,140.7307,Japan,1
1752,Yan’an Beilu,44.0144,87.2674,China,0
1753,Owo,7.1961,5.5864,Nigeria,0
1754,Aves,41.44,-8.3,Portugal,
1755,Buenaventura,3.8772,-77.0267,Colombia,0
1756,Poughkeepsie,41.695,-73.9211,United States,
1757,Laval,45.5833,-73.75,Canada,
1758,Boise,43.6005,-116.2308,United States,1
1759,Toyota,35.0824,137.1563,Japan,
1760,Santa Rosa,14.3167,121.1167,Philippines,
1761,Daloa,6.8833,-6.45,Côte d'Ivoire,1
1762,Elazığ,38.6744,39.2228,Turkey,1
1763,Hpa-An,16.8906,97.6333,Myanmar,1
1764,Rahimyar Khan,28.42,70.3,Pakistan,
1765,Bettiah,26.8014,84.5028,India,
1766,Ugep,5.8,8.0833,Nigeria,0
1767,Winston-Salem,36.1029,-80.261,United States,
1768,Kushtia,23.9101,89.1231,Bangladesh,
1769,Mishan,45.542,131.8666,China,0
1770,Hailin,44.5735,129.3825,China,0
1771,Seremban,2.7222,101.9417,Malaysia,1
1772,Boa Vista,2.8194,-60.6714,Brazil,1
1773,Lecheng,25.1307,113.3472,China,0
1774,Zhengjiatun,43.513,123.5003,China,0
1775,Luhansk,48.5667,39.3333,Ukraine,1
1776,Pencheng,29.6792,115.6611,China,
1777,Magnitogorsk,53.3833,59.0333,Russia,
1778,Thủ Dầu Một,10.9667,106.65,Vietnam,1
1779,Takamatsu,34.35,134.05,Japan,1
1780,Syracuse,43.0407,-76.1437,United States,
1781,El Obeid,13.1833,30.2167,Sudan,1
1782,Da’an,45.505,124.2863,China,0
1783,Xingren,25.4352,105.1907,China,
1784,Biñan,14.3333,121.0833,Philippines,
1785,Arusha,-3.3667,36.6833,Tanzania,1
1786,Fenyang,37.2647,111.7775,China,
1787,Ajdābiyā,30.7556,20.2253,Libya,1
1788,Paju,37.8667,126.8,South Korea,0
1789,Mataram,-8.5833,116.1167,Indonesia,1
1790,Carapicuíba,-23.5192,-46.8358,Brazil,
1791,Jhang City,31.2694,72.3161,Pakistan,0
1792,Tepic,21.5083,-104.8931,Mexico,1
1793,Jayapura,-2.533,140.717,Indonesia,1
1794,Rio Branco,-9.9747,-67.81,Brazil,1
1795,Toyama,36.6959,137.2137,Japan,1
1796,Fangting,31.1282,104.1695,China,0
1797,Sanandaj,35.3144,46.9922,Iran,1
1798,Delhi Cantonment,28.6,77.1333,India,
1799,Linghai,41.1676,121.3558,China,
1800,Shorāpur,16.52,76.76,India,
1801,Toyonaka,34.7833,135.4667,Japan,
1802,Sochi,43.5853,39.7203,Russia,
1803,Bhāgalpur,25.25,87,India,
1804,Bellary,15.1,76.9167,India,
1805,Ivanovo,57,41,Russia,1
1806,Kisumu,-0.0833,34.7667,Kenya,1
1807,Augusta,33.3645,-82.0708,United States,
1808,Türkmenabat,39.0833,63.5667,Turkmenistan,1
1809,Zaria,11.0667,7.7,Nigeria,0
1810,Bryansk,53.25,34.3667,Russia,1
1811,Kumi,36.1195,128.3444,South Korea,
1812,Asyūţ,27.1833,31.1667,Egypt,1
1813,Wanyuan,32.0691,108.0351,China,0
1814,Maracay,10.2469,-67.5958,Venezuela,1
1815,Padiāla,30.5667,76.6333,India,
1816,Yüreğir,36.9981,35.3439,Turkey,0
1817,Jiexiu,37.0282,111.9103,China,
1818,Stockton,37.9765,-121.3109,United States,
1819,Bogra,24.85,89.3667,Bangladesh,
1820,Santa Fe,-31.6333,-60.7,Argentina,1
1821,Campina Grande,-7.2306,-35.8811,Brazil,
1822,Nagasaki,32.7447,129.8736,Japan,1
1823,Szczecin,53.4325,14.5481,Poland,1
1824,Maringá,-23.4,-51.9167,Brazil,
1825,Palm Coast,29.5389,-81.2457,United States,
1826,Chattanooga,35.066,-85.2481,United States,
1827,Qazvīn,36.2667,50,Iran,1
1828,Quilon,8.88,76.6,India,
1829,Jundiaí,-23.1858,-46.8839,Brazil,
1830,Hirakata,34.8167,135.65,Japan,
1831,Gifu,35.4232,136.7608,Japan,1
1832,Khayelitsha,-34.0403,18.6778,South Africa,
1833,Kūkatpalli,17.4849,78.4138,India,
1834,Jiangjiafan,31.0238,111.9709,China,
1835,Maungdaw,20.8167,92.3667,Myanmar,
1836,Kissimmee,28.3041,-81.4169,United States,
1837,Durham,35.9792,-78.9022,United States,
1838,Dera Ghazi Khan,30.0331,70.64,Pakistan,0
1839,Miyazaki,31.9167,131.4167,Japan,1
1840,Bhātpāra,22.87,88.41,India,
1841,Hazāribāgh,23.98,85.35,India,
1842,Sandakan,5.8388,118.1173,Malaysia,
1843,Taytay,14.5692,121.1325,Philippines,
1844,Hejin,35.5914,110.706,China,
1845,Olinda,-8,-34.8833,Brazil,
1846,Thanh Hóa,19.8075,105.7764,Vietnam,1
1847,Surgut,61.25,73.4333,Russia,
1848,Nnewi,6.0167,6.9167,Nigeria,0
1849,Minamisuita,34.7594,135.5169,Japan,
1850,Thiès,14.7833,-16.9167,Senegal,1
1851,Betsiboka,-16.95,46.83,Madagascar,
1852,Belgorod,50.6,36.6,Russia,1
1853,Tāngāil,24.2644,89.9181,Bangladesh,
1854,Yokosuka,35.25,139.6667,Japan,
1855,Nha Trang,12.245,109.1917,Vietnam,1
1856,Malabon,14.66,120.96,Philippines,1
1857,Al Jahrā’,29.35,47.6833,Kuwait,
1858,Yola,9.23,12.46,Nigeria,1
1859,Pasto,1.2078,-77.2772,Colombia,1
1860,Lobito,-12.3597,13.5308,Angola,
1861,Al Jubayl,27,49.6544,Saudi Arabia,
1862,Saurimo,-9.65,20.4,Angola,1
1863,Arlington,32.6998,-97.125,United States,
1864,Gujrat,32.5739,74.0789,Pakistan,0
1865,Ad Dīwānīyah,31.9892,44.9247,Iraq,1
1866,Piracicaba,-22.7253,-47.6492,Brazil,
1867,Hancheng,35.4768,110.4419,China,
1868,Karamay,45.5799,84.8892,China,0
1869,Kākināda,16.9661,82.255,India,
1870,San-Pédro,4.75,-6.6333,Côte d'Ivoire,1
1871,Tieli,46.9838,128.04,China,0
1872,Cilegon,-6.0027,106.0112,Indonesia,
1873,Darbhanga,26.17,85.9,India,
1874,Victorville,34.5277,-117.3536,United States,
1875,Gwoza,11.0861,13.6914,Nigeria,0
1876,Saki,8.6667,3.4,Nigeria,0
1877,Tétouan,35.5667,-5.3667,Morocco,
1878,Aqtöbe,50.2836,57.2297,Kazakhstan,1
1879,Bibā,28.9218,30.9844,Egypt,
1880,Plovdiv,42.15,24.75,Bulgaria,1
1881,Oyo,7.85,3.933,Nigeria,0
1882,Ilesa,7.6167,4.7167,Nigeria,0
1883,Tarlac City,15.4869,120.59,Philippines,1
1884,Okazaki,34.9543,137.1744,Japan,
1885,Sirūr,18.83,74.38,India,
1886,Cainta,14.5667,121.1167,Philippines,
1887,Ḩā’il,27.5167,41.6833,Saudi Arabia,1
1888,Garoowe,8.4,48.4667,Somalia,1
1889,Olomouc,49.5939,17.2508,Czechia,1
1890,Yidu,30.388,111.4505,China,
1891,Lianzhou,24.7868,112.3735,China,0
1892,Ceel Baraf,3.2073,45.7587,Somalia,
1893,Christchurch,-43.531,172.6365,New Zealand,1
1894,Nuevo Laredo,27.4861,-99.5069,Mexico,0
1895,Brno,49.1925,16.6083,Czechia,1
1896,Bawshar,23.5333,58.3833,Oman,
1897,London,42.9836,-81.2497,Canada,
1898,Novi Sad,45.2542,19.8425,Serbia,1
1899,Aurora,39.7083,-104.7237,United States,
1900,Gusau,12.15,6.6667,Nigeria,1
1901,Modesto,37.6375,-121.0028,United States,
1902,Kaunas,54.8972,23.8861,Lithuania,1
1903,Sardārshahr,28.4401,74.4908,India,
1904,Zêtang,29.238,91.771,China,
1905,Las Palmas,28.1272,-15.4314,Spain,1
1906,Ichinomiya,35.3039,136.8031,Japan,
1907,Taunggyi,20.7836,97.0354,Myanmar,1
1908,Lancaster,34.6935,-118.1753,United States,
1909,Fayetteville,36.0714,-94.1661,United States,
1910,Cantonment,31.5167,74.3833,Pakistan,
1911,Pānihāti,22.69,88.37,India,
1912,Huancayo,-12.0667,-75.2167,Peru,1
1913,Betim,-19.9678,-44.1978,Brazil,
1914,Usulután,13.35,-88.45,El Salvador,1
1915,Sintra,38.7992,-9.3883,Portugal,0
1916,Chitungwiza,-17.9939,31.0481,Zimbabwe,
1917,Hatay,36.2025,36.1606,Turkey,1
1918,Iquitos,-3.75,-73.25,Peru,1
1919,Sivas,39.75,37.0167,Turkey,1
1920,Helixi,30.6267,118.9861,China,0
1921,Scranton,41.4044,-75.6649,United States,
1922,Mamou,10.3833,-12.0833,Guinea,1
1923,Al Kharj,24.1483,47.305,Saudi Arabia,
1924,Manukau City,-37,174.885,New Zealand,
1925,Stoke-on-Trent,53,-2.1833,United Kingdom,
1926,Cumaná,10.45,-64.1667,Venezuela,1
1927,Rohtak,28.8909,76.5796,India,
1928,Vinnytsia,49.2333,28.4833,Ukraine,1
1929,Māler Kotla,30.5167,75.8833,India,
1930,Lipa City,13.9411,121.1622,Philippines,
1931,Mandaue City,10.3333,123.9333,Philippines,1
1932,Bhawana,31.5661,72.6461,Pakistan,
1933,Khorramābād,33.4878,48.3558,Iran,1
1934,Ambon,-3.7,128.1667,Indonesia,1
1935,Takasaki,36.3219,139.0033,Japan,
1936,Butuan,8.9534,125.5288,Philippines,1
1937,Toyohashi,34.7692,137.3915,Japan,
1938,Keelung,25.1333,121.7333,Taiwan,1
1939,Baguio City,16.4119,120.5933,Philippines,1
1940,La Florida,-33.5333,-70.5833,Chile,
1941,Gebze,40.8,29.4333,Turkey,0
1942,Lengshuijiang,27.6858,111.4279,China,
1943,Petare,10.4833,-66.8167,Venezuela,0
1944,Anguo,38.4177,115.3204,China,
1945,Kita-ku,35.7528,139.7336,Japan,
1946,Madan,30.3392,48.3042,Iran,
1947,Panshi,42.9392,126.0561,China,
1948,Bharatpur,27.6833,84.4333,Nepal,
1949,Az Zubayr,30.3833,47.7,Iraq,0
1950,Caucaia,-3.7167,-38.65,Brazil,
1951,Vitsyebsk,55.1917,30.2056,Belarus,1
1952,Shinjuku,35.6939,139.7034,Japan,
1953,Nicolás Romero,19.5833,-99.3667,Mexico,0
1954,Huichang,34.9136,112.7852,China,0
1955,Nagano,36.6486,138.1947,Japan,1
1956,Bauru,-22.315,-49.0608,Brazil,
1957,Yanjiao,39.9432,116.8036,China,
1958,Bochum,51.4819,7.2158,Germany,0
1959,Tecámac,19.7131,-98.9683,Mexico,0
1960,Anápolis,-16.3339,-48.9519,Brazil,
1961,Coventry,52.4081,-1.5106,United Kingdom,
1962,Oxnard,34.1964,-119.1815,United States,
1963,Korba,22.35,82.68,India,
1964,Cibinong,-6.485,106.842,Indonesia,0
1965,Dāsarhalli,13.0465,77.513,India,
1966,Qardho,9.5,49.0833,Somalia,
1967,Wŏnsan,39.1475,127.4461,North Korea,1
1968,Kocaeli,40.7625,29.9175,Turkey,1
1969,Newcastle,-27.7464,29.9328,South Africa,
1970,Iligan,8.23,124.25,Philippines,1
1971,Youngstown,41.0993,-80.6463,United States,
1972,Cabuyao,14.275,121.125,Philippines,
1973,Kayapınar,37.94,40.19,Turkey,0
1974,Nakano,35.7073,139.6637,Japan,
1975,Utrecht,52.0833,5.1167,Netherlands,1
1976,Bengkulu,-3.7956,102.2592,Indonesia,1
1977,Orizaba,18.85,-97.1,Mexico,0
1978,Blumenau,-26.9333,-49.05,Brazil,
1979,Montes Claros,-16.7306,-43.8639,Brazil,
1980,Indio,33.7346,-116.2346,United States,
1981,Pétion-Ville,18.5128,-72.2864,Haiti,
1982,Tungi,23.9,90.41,Bangladesh,
1983,Buurhakaba,2.7833,44.0833,Somalia,0
1984,Shuanghe,30.3866,106.7756,China,0
1985,Konak,38.4189,27.1285,Turkey,0
1986,Ash Shuhadā’,30.6039,30.9021,Egypt,
1987,Pensacola,30.4413,-87.1911,United States,
1988,Umuahia,5.5333,7.4833,Nigeria,1
1989,Gedaref,14.0333,35.3833,Sudan,1
1990,Palu,-0.895,119.8594,Indonesia,1
1991,Mardan,34.2012,72.0258,Pakistan,0
1992,Pokhara,28.2083,83.9889,Nepal,1
1993,Mahilyow,53.9167,30.35,Belarus,1
1994,Wudalianchi,48.6433,126.1408,China,0
1995,Hrodna,53.6667,23.8333,Belarus,1
1996,Sungai Petani,5.65,100.48,Malaysia,
1997,Linxia Chengguanzhen,35.6,103.2167,China,0
1998,Sīkar,27.62,75.15,India,
1999,Nam Định,20.42,106.1683,Vietnam,1
2000,Vitória,-20.2889,-40.3083,Brazil,1
2001,Sasarām,24.95,84.03,India,
2002,Karūr,10.9601,78.0766,India,
2003,Franca,-20.5389,-47.4008,Brazil,
2004,Vladimir,56.1286,40.4058,Russia,1
2005,Karnāl,29.686,76.989,India,
2006,Kismaayo,-0.3581,42.5453,Somalia,1
2007,São Vicente,-23.9633,-46.3922,Brazil,
2008,Kawagoe,35.9251,139.4858,Japan,
2009,Villahermosa,17.9892,-92.9281,Mexico,1
2010,Taraz,42.9,71.3667,Kazakhstan,1
2011,Cubal,-13.1117,14.3672,Angola,
2012,Luena,-11.7918,19.9062,Angola,1
2013,Ibb,13.9667,44.1667,Yemen,1
2014,Yong’an,25.9733,117.3593,China,0
2015,Wuppertal,51.2667,7.1833,Germany,0
2016,Manisa,38.6306,27.4222,Turkey,1
2017,San Fernando,15.0333,120.6833,Philippines,1
2018,Chānda,19.95,79.297,India,
2019,Minatitlán,17.9833,-94.55,Mexico,0
2020,Malmö,55.6058,13.0358,Sweden,1
2021,Nizhniy Tagil,57.9167,59.9667,Russia,
2022,San Pedro,14.3583,121.0583,Philippines,
2023,Cuito,-12.3833,16.9333,Angola,1
2024,Hongzhai,34.9857,104.5446,China,
2025,Guédiawaye,14.7833,-17.4,Senegal,
2026,Wakayama,34.2333,135.1667,Japan,1
2027,Tin Shui Wai,22.4608,114.0012,Hong Kong,
2028,Pavlodar,52.3,76.95,Kazakhstan,1
2029,Gimpo,37.7,126.6,South Korea,0
2030,Itaquaquecetuba,-23.4864,-46.3486,Brazil,
2031,Nara,34.6844,135.805,Japan,1
2032,Van,38.4942,43.38,Turkey,1
2033,Corrientes,-27.4833,-58.8167,Argentina,1
2034,Neiva,2.9345,-75.2809,Colombia,1
2035,Arkhangelsk,64.55,40.5333,Russia,1
2036,Batangas,13.83,121,Philippines,1
2037,Licheng,24.4935,110.3902,China,0
2038,Koshigaya,35.8911,139.7909,Japan,
2039,Sinŭiju,40.1,124.4,North Korea,1
2040,Cabimas,10.4,-71.4333,Venezuela,0
2041,Yakeshi,49.2842,120.7283,China,0
2042,Oruro,-17.9667,-67.1167,Bolivia,
2043,Ahmadnagar,19.08,74.73,India,
2044,Āvadi,13.1097,80.0972,India,
2045,Sarai Alamgir,32.9,73.75,Pakistan,
2046,Varna,43.2167,27.9167,Bulgaria,1
2047,Gorgān,36.8386,54.4347,Iran,1
2048,Takatsuki,34.85,135.6167,Japan,
2049,Holguín,20.8869,-76.2592,Cuba,1
2050,Qo‘qon,40.5286,70.9425,Uzbekistan,
2051,Semey,50.4333,80.2667,Kazakhstan,1
2052,Yingmen,39.9487,97.4395,China,
2053,Cariacica,-20.2639,-40.42,Brazil,
2054,Palmira,3.5833,-76.25,Colombia,0
2055,Tapachula,14.9,-92.2667,Mexico,0
2056,Bydgoszcz,53.1219,18.0003,Poland,1
2057,Antofagasta,-23.65,-70.4,Chile,1
2058,Anaheim,33.839,-117.8574,United States,
2059,Rājahmundry,16.98,81.78,India,
2060,Chita,52.0333,113.5,Russia,1
2061,Bonita Springs,26.3558,-81.7859,United States,
2062,Caruaru,-8.2828,-35.9758,Brazil,
2063,Nice,43.7034,7.2663,France,0
2064,Shāhjānpur,27.88,79.91,India,
2065,António Enes,-16.2333,39.9167,Mozambique,
2066,Central Coast,-33.3,151.2,Australia,
2067,Pamukkale,37.9167,29.1167,Turkey,
2068,Wad Medani,14.4,33.5167,Sudan,1
2069,Öskemen,49.9833,82.6167,Kazakhstan,1
2070,Tanch’ŏn,40.458,128.911,North Korea,
2071,Tokorozawa,35.7996,139.4686,Japan,
2072,Hosūr,12.7409,77.8253,India,
2073,Serekunda,13.4333,-16.6667,The Gambia,
2074,Greensboro,36.0956,-79.8271,United States,
2075,Kūstī,13.1667,32.6667,Sudan,
2076,Cuddapah,14.47,78.82,India,
2077,Simferopol,44.9484,34.1,Ukraine,1
2078,Sarıyer,41.1669,29.0572,Turkey,0
2079,Sumqayıt,40.5917,49.6397,Azerbaijan,1
2080,Ōtsu,35.0167,135.85,Japan,1
2081,Vitória da Conquista,-14.8658,-40.8389,Brazil,
2082,Makiivka,48.0556,37.9611,Ukraine,0
2083,Vũng Tàu,10.3833,107.1167,Vietnam,1
2084,Brest,52.1347,23.6569,Belarus,1
2085,Uruapan,19.4208,-102.0628,Mexico,0
2086,Gómez Palacio,25.5611,-103.4983,Mexico,0
2087,Yeosu,34.7333,127.7333,South Korea,0
2088,Kaluga,54.5333,36.2667,Russia,1
2089,Meram,37.8364,32.4383,Turkey,0
2090,Muzaffarpur,26.1225,85.3906,India,
2091,Alwar,27.5498,76.6355,India,
2092,Lublin,51.25,22.5667,Poland,1
2093,Lianran,24.9211,102.4778,China,0
2094,Buôn Ma Thuột,12.6667,108.05,Vietnam,1
2095,Cuernavaca,18.9186,-99.2342,Mexico,1
2096,Alicante,38.3453,-0.4831,Spain,0
2097,East London,-33.0175,27.9047,South Africa,
2098,Tarsus,36.9165,34.8951,Turkey,0
2099,Matadi,-5.8167,13.4833,Congo (Kinshasa),1
2100,Islip,40.7385,-73.1888,United States,
2101,Cimanggis,-6.3645,106.8591,Indonesia,
2102,Kaesŏng,37.9667,126.55,North Korea,1
2103,Beni,0.5,29.4667,Congo (Kinshasa),
2104,Sultanbeyli,40.9683,29.2617,Turkey,
2105,Huntsville,34.6981,-86.6412,United States,
2106,Randburg,-26.0936,28.0064,South Africa,
2107,Jitpur,27.6666,85.3333,Nepal,
2108,Beylikdüzü,41.0011,28.6419,Turkey,
2109,Petrolina,-9.3928,-40.5078,Brazil,
2110,Chinju,35.2,128.0833,South Korea,
2111,Tangdong,25.9755,113.2302,China,0
2112,Reading,51.4542,-0.9731,United Kingdom,
2113,Sambalpur,21.47,83.97,India,
2114,Hangu,39.232,117.777,China,
2115,Belfast,54.5964,-5.93,United Kingdom,
2116,Shah Latif Town,24.8806,67.1625,Pakistan,
2117,Iwaki,37.0505,140.8877,Japan,
2118,Salamanca,20.5703,-101.1972,Mexico,0
2119,Yingzhong,32.2381,119.8133,China,
2120,Viña del Mar,-33.0244,-71.5517,Chile,
2121,Hirosaki,40.6031,140.4638,Japan,
2122,Bielefeld,52.0211,8.5347,Germany,0
2123,Az Zaqāzīq,30.5667,31.5,Egypt,1
2124,Nazrēt,8.5414,39.2689,Ethiopia,
2125,Cuenca,-2.8974,-79.0045,Ecuador,1
2126,Tampere,61.4981,23.76,Finland,1
2127,Bonn,50.7333,7.1,Germany,0
2128,Al Fayyūm,29.3084,30.8441,Egypt,1
2129,Blida,36.4722,2.8333,Algeria,1
2130,Ciudad Obregón,27.4939,-109.9389,Mexico,0
2131,Uberaba,-19.7478,-47.9319,Brazil,
2132,Corpus Christi,27.7254,-97.3767,United States,
2133,Asan,36.7833,126.9833,South Korea,
2134,Ribeirão das Neves,-19.7669,-44.0869,Brazil,
2135,Soledad de Graciano Sánchez,22.1833,-100.9333,Mexico,0
2136,Maebashi,36.3895,139.0634,Japan,1
2137,Kāmārhāti,22.6686,88.3704,India,
2138,Gəncə,40.6828,46.3606,Azerbaijan,1
2139,Kendari,-3.9907,122.5086,Indonesia,1
2140,Balıkesir,39.6333,27.8833,Turkey,1
2141,Thái Nguyên,21.6,105.85,Vietnam,1
2142,Asahikawa,43.7706,142.365,Japan,
2143,Smolensk,54.7828,32.0453,Russia,1
2144,Dahūk,36.8667,43,Iraq,1
2145,Wŏnju,37.3417,127.9208,South Korea,
2146,Nakuru,-0.3,36.0667,Kenya,1
2147,Lafia,8.5,8.5167,Nigeria,1
2148,Fort Wayne,41.0888,-85.1436,United States,
2149,Güngören,41.0225,28.8717,Turkey,
2150,Koriyama,37.4004,140.3597,Japan,
2151,Bamiantong,44.9164,130.5212,China,0
2152,Taourirt,34.4169,-2.885,Morocco,
2153,Rāmpur,28.8,79,India,
2154,Debrecen,47.53,21.6392,Hungary,1
2155,Cabanatuan City,15.4908,120.9678,Philippines,
2156,Markham,43.8767,-79.2633,Canada,
2157,Fayetteville,35.085,-78.9772,United States,
2158,Pelotas,-31.7719,-52.3425,Brazil,
2159,Roodepoort,-26.1625,27.8725,South Africa,
2160,Volzhskiy,48.8056,44.7417,Russia,
2161,Ann Arbor,42.2759,-83.731,United States,
2162,Bijāpur,16.83,75.71,India,
2163,Sukabumi,-6.9181,106.9315,Indonesia,
2164,Tharād,24.3926,71.6248,India,
2165,Ratnāgiri,16.9944,73.3,India,
2166,Ulanhot,46.0726,122.0719,China,
2167,Yunzhong,39.8143,113.0946,China,0
2168,Jackson,32.3157,-90.2125,United States,1
2169,Cotabato,7.22,124.25,Philippines,1
2170,Al Fallūjah,33.35,43.7833,Iraq,0
2171,Kōchi,33.5589,133.5314,Japan,1
2172,Minna,9.6139,6.5569,Nigeria,1
2173,Bielsko-Biała,49.8225,19.0444,Poland,0
2174,Canoas,-29.92,-51.18,Brazil,
2175,Gwangmyeongni,37.476,126.866,South Korea,
2176,Cluj-Napoca,46.7667,23.5833,Romania,1
2177,Pucallpa,-8.3833,-74.55,Peru,1
2178,Kuching,1.5575,110.3439,Malaysia,1
2179,Gonder,12.6075,37.4592,Ethiopia,
2180,Kikuyu,-1.25,36.6667,Kenya,
2181,Mekele,13.4969,39.4769,Ethiopia,1
2182,Gonaïves,19.4456,-72.6883,Haiti,1
2183,Guasave,25.5744,-108.4706,Mexico,0
2184,Naha,26.2122,127.6792,Japan,1
2185,Nantes,47.2181,-1.5528,France,1
2186,Binxian,35.0364,108.0764,China,
2187,Shimoga,13.9333,75.5667,India,
2188,Hotan,37.1,80.0167,China,0
2189,Kaiyuan,23.7147,103.2585,China,
2190,Ciudad del Este,-25.5167,-54.6167,Paraguay,1
2191,Temara,33.9267,-6.9122,Morocco,
2192,Antioch,37.9787,-121.796,United States,
2193,Uíge,-7.6167,15.05,Angola,1
2194,Osh,40.5333,72.7833,Kyrgyzstan,1
2195,Córdoba,37.8845,-4.7796,Spain,0
2196,Camagüey,21.3839,-77.9075,Cuba,1
2197,Mobile,30.6782,-88.1162,United States,
2198,San Salvador de Jujuy,-24.1833,-65.3,Argentina,1
2199,Al Kūt,32.4907,45.8304,Iraq,1
2200,Cherepovets,59.1167,37.9,Russia,
2201,Lexington,38.0423,-84.4587,United States,
2202,San Miguelito,9.033,-79.5,Panama,0
2203,Okene,7.55,6.2333,Nigeria,0
2204,Timişoara,45.7597,21.23,Romania,1
2205,Menongue,-14.6556,17.6842,Angola,1
2206,Jūnāgadh,21.52,70.463,India,
2207,Katsina,12.9889,7.6008,Nigeria,1
2208,Poltava,49.5894,34.5514,Ukraine,1
2209,Maroua,10.5971,14.3157,Cameroon,1
2210,Xiaoli,22.6782,113.2313,China,
2211,Kaech’ŏn,39.6986,125.9061,North Korea,
2212,Asan,36.35,126.9167,South Korea,
2213,Tehuacán,18.4617,-97.3928,Mexico,0
2214,Aksaray,38.3742,34.0289,Turkey,1
2215,Attiecoubé,5.3333,-4.0333,Côte d'Ivoire,
2216,Coatzacoalcos,18.15,-94.4333,Mexico,0
2217,Saransk,54.1833,45.1833,Russia,1
2218,Nukus,42.4667,59.6,Uzbekistan,1
2219,Puerto Plata,19.8,-70.6833,Dominican Republic,0
2220,Hāpur,28.7309,77.7757,India,
2221,Zalantun,48.0033,122.7365,China,0
2222,Münster,51.9625,7.6256,Germany,0
2223,Trichūr,10.52,76.21,India,
2224,An Nhơn,13.917,109.083,Vietnam,0
2225,Taubaté,-23.025,-45.5556,Brazil,
2226,Binangonan,14.4514,121.1919,Philippines,
2227,Cirebon,-6.7071,108.5574,Indonesia,
2228,Safi,32.2833,-9.2333,Morocco,
2229,Mitchells Plain,-34.0506,18.6181,South Africa,
2230,Boaco,12.4719,-85.6594,Nicaragua,1
2231,Asheville,35.5707,-82.5537,United States,
2232,Cà Mau,9.1833,105.15,Vietnam,1
2233,Trenton,40.2237,-74.7641,United States,1
2234,Toshima,35.7261,139.7167,Japan,
2235,Vologda,59.2167,39.9,Russia,1
2236,Barddhamān,23.2333,87.8667,India,
2237,Tanza,14.3944,120.8531,Philippines,
2238,Bor,6.2125,31.5608,South Sudan,1
2239,Kasur,31.1167,74.45,Pakistan,0
2240,Yakou,33.2937,113.5203,China,0
2241,Santa Rosa,38.4458,-122.7067,United States,
2242,Orël,52.9686,36.0694,Russia,1
2243,Shahr-e Qods,35.7214,51.1089,Iran,0
2244,Kingston upon Hull,53.7444,-0.3325,United Kingdom,
2245,Mannheim,49.4878,8.4661,Germany,0
2246,Santa Ana,33.7367,-117.8819,United States,
2247,Guarujá,-23.9936,-46.2564,Brazil,
2248,Playa del Carmen,20.6281,-87.0755,Mexico,0
2249,Pasir Gudang,1.5028,103.9356,Malaysia,
2250,Datang,22.9481,113.9276,China,
2251,Panvel,18.9944,73.1139,India,
2252,Lansing,42.7142,-84.5601,United States,1
2253,Zarzal,4.3983,-76.0772,Colombia,0
2254,La Victoria,18.55,-69.9,Dominican Republic,
2255,Port Elizabeth,-33.9581,25.6,South Africa,
2256,Alanya,36.55,32,Turkey,0
2257,Nizāmābād,18.672,78.094,India,
2258,Al ‘Ajamī,31.0959,29.7604,Egypt,
2259,Quy Nhơn,13.7667,109.2333,Vietnam,1
2260,Yakutsk,62.0272,129.7319,Russia,1
2261,Yokkaichi,34.965,136.6244,Japan,
2262,Ponta Grossa,-25.0994,-50.1583,Brazil,
2263,Chalco,19.2647,-98.8975,Mexico,0
2264,Henderson,36.0133,-115.0381,United States,
2265,Gwangju,37.3667,127.2833,South Korea,
2266,Longquan,25.9106,114.786,China,
2267,Karlsruhe,49.0092,8.404,Germany,0
2268,Shahrīār,35.6597,51.0592,Iran,0
2269,Kurgan,55.4408,65.3411,Russia,1
2270,Kasugai,35.2475,136.9722,Japan,
2271,St. Paul,44.9478,-93.1039,United States,1
2272,Sariwŏn,38.5064,125.7597,North Korea,1
2273,St. Catharines,43.1833,-79.2333,Canada,
2274,Karawang,-6.3125,107.295,Indonesia,0
2275,Lakeland,28.0557,-81.9545,United States,
2276,Niagara Falls,43.06,-79.1067,Canada,
2277,Oulgaret,11.957,79.7737,India,
2278,Taboão da Serra,-23.5328,-46.7994,Brazil,
2279,Vladikavkaz,43.04,44.6775,Russia,1
2280,Nghi Sơn,19.417,105.75,Vietnam,
2281,Juliaca,-15.4833,-70.1333,Peru,
2282,Parbhani,19.27,76.78,India,
2283,Hisar,29.15,75.7,India,
2284,Puerto La Cruz,10.2,-64.6333,Venezuela,0
2285,Puerto Princesa,9.75,118.75,Philippines,1
2286,Podolsk,55.4311,37.5456,Russia,
2287,Meguro,35.6415,139.6983,Japan,
2288,Ciudad Victoria,23.7389,-99.1431,Mexico,1
2289,Ciudad Santa Catarina,25.6833,-100.45,Mexico,0
2290,Santarém,-2.43,-54.72,Brazil,
2291,Newark,40.7245,-74.1725,United States,
2292,Vaughan,43.8333,-79.5,Canada,
2293,Āwasa,7.05,38.4667,Ethiopia,1
2294,Ōakashichō,34.65,135,Japan,
2295,Yeşilyurt,38.2961,38.2489,Turkey,0
2296,Pekalongan,-6.8833,109.6667,Indonesia,
2297,Pondokaren,-6.2811,106.7019,Indonesia,
2298,Adıyaman,37.7639,38.2778,Turkey,1
2299,Kurume,33.3167,130.5167,Japan,
2300,Vila Nova de Gaia,41.1333,-8.6167,Portugal,0
2301,Paulista,-7.9408,-34.8728,Brazil,
2302,Oaxaca,17.0606,-96.7253,Mexico,1
2303,Armenia,4.53,-75.68,Colombia,1
2304,Akita,39.72,140.1026,Japan,1
2305,Awka,6.2,7.0667,Nigeria,1
2306,San Bernardo,-33.5833,-70.7,Chile,0
2307,Curepipe,-20.3188,57.5263,Mauritius,
2308,Iksan,35.9439,126.9544,South Korea,
2309,Pachuca,20.1,-98.75,Mexico,1
2310,Al Maţarīyah,31.1833,32.0333,Egypt,
2311,Sóc Trăng,9.6028,105.9736,Vietnam,1
2312,Bahía Blanca,-38.7167,-62.2667,Argentina,0
2313,Coacalco,19.6333,-99.0931,Mexico,0
2314,San Juan del Río,20.3833,-99.9833,Mexico,0
2315,Fort Collins,40.5477,-105.0656,United States,
2316,Limeira,-22.565,-47.4019,Brazil,
2317,Popayán,2.4542,-76.6092,Colombia,1
2318,Praia Grande,-24.0061,-46.4028,Brazil,
2319,Qianzhou,28.3185,109.7318,China,0
2320,Newcastle,54.98,-1.61,United Kingdom,
2321,Māldah,25.0119,88.1433,India,
2322,Ciudad General Escobedo,25.7933,-100.1583,Mexico,0
2323,Oyster Bay,40.7846,-73.514,United States,
2324,Montpellier,43.6119,3.8772,France,0
2325,Phan Thiết,10.9333,108.1,Vietnam,1
2326,Stockport,53.4083,-2.1494,United Kingdom,
2327,Al Qunfudhah,19.1264,41.0789,Saudi Arabia,
2328,Bada Barabīl,22.12,85.4,India,
2329,Tampico,22.2553,-97.8686,Mexico,0
2330,Białystok,53.1353,23.1456,Poland,1
2331,Coatepeque,14.7,-91.8667,Guatemala,0
2332,Ash Shāmīyah,31.9636,44.5989,Iraq,0
2333,Mérida,8.48,-71.19,Venezuela,1
2334,Chakwal,32.9303,72.8556,Pakistan,0
2335,Murmansk,68.9706,33.075,Russia,1
2336,Ar Raqqah,35.95,39.01,Syria,1
2337,Afyonkarahisar,38.7578,30.5386,Turkey,1
2338,Bihār,25.197,85.518,India,
2339,Jember,-8.1727,113.6873,Indonesia,0
2340,Valladolid,41.6528,-4.7236,Spain,1
2341,Reading,40.34,-75.9267,United States,
2342,Springfield,37.1943,-93.2916,United States,
2343,İskenderun,36.5817,36.165,Turkey,0
2344,Al Mubarraz,25.4416,49.6642,Saudi Arabia,
2345,Petrópolis,-22.505,-43.1789,Brazil,
2346,Augsburg,48.3689,10.8978,Germany,0
2347,Navotas,14.6667,120.9417,Philippines,1
2348,Chernihiv,51.4939,31.2947,Ukraine,1
2349,Yangsan,35.3333,129.0333,South Korea,0
2350,Comilla,23.45,91.2,Bangladesh,
2351,Irvine,33.6772,-117.7738,United States,
2352,Bradford,53.8,-1.75,United Kingdom,
2353,Tagum,7.4478,125.8078,Philippines,1
2354,Espoo,60.2056,24.6556,Finland,0
2355,Valparaíso,-33.0461,-71.6197,Chile,1
2356,Silang,14.2306,120.975,Philippines,
2357,Finglas,53.4597,-6.2181,Ireland,
2358,Rangpur,25.75,89.2444,Bangladesh,1
2359,Vigo,42.2314,-8.7124,Spain,
2360,Sikandarābād,28.4512,77.6955,India,
2361,Battalgazi,38.4228,38.3656,Turkey,0
2362,Bāli,22.65,88.34,India,
2363,Çorum,40.5455,34.957,Turkey,1
2364,Ismailia,30.5833,32.2667,Egypt,1
2365,Vila Teixeira da Silva,-12.0072,15.7792,Angola,
2366,Pānīpat,29.3875,76.97,India,
2367,Delmas,18.55,-72.3,Haiti,
2368,Strasbourg,48.5833,7.7458,France,1
2369,Mabalacat,15.2167,120.5833,Philippines,
2370,Batna,35.55,6.1667,Algeria,1
2371,Āīzawl,23.7272,92.7178,India,1
2372,Tambov,52.7167,41.4333,Russia,1
2373,Dexing,28.958,117.7597,China,0
2374,Iaşi,47.1622,27.5889,Romania,1
2375,Kunp’o,37.35,126.95,South Korea,
2376,San Lorenzo,-25.34,-57.52,Paraguay,
2377,Santa Maria,14.8183,120.9563,Philippines,
2378,Sonpur,25.7,85.18,India,
2379,Groznyy,43.3125,45.6986,Russia,1
2380,Kherson,46.6425,32.625,Ukraine,1
2381,Anchorage,61.1508,-149.1091,United States,
2382,The Woodlands,30.1738,-95.5134,United States,
2383,Hong’an,47.21,123.61,China,0
2384,Resistencia,-27.4514,-58.9867,Argentina,1
2385,Graz,47.0708,15.4386,Austria,1
2386,Karīmnagar,18.4386,79.1288,India,
2387,Braşov,45.6667,25.6167,Romania,1
2388,Sumida,35.7107,139.8015,Japan,
2389,Sekondi,4.9433,-1.704,Ghana,1
2390,South Bend,41.6767,-86.2696,United States,
2391,Morioka,39.7021,141.1545,Japan,1
2392,Sonīpat,28.99,77.022,India,
2393,Sétif,36.19,5.41,Algeria,1
2394,Atyraū,47.1167,51.8833,Kazakhstan,1
2395,Ipswich,52.0594,1.1556,United Kingdom,
2396,Dewās,22.96,76.06,India,
2397,Hulin,45.7671,132.9646,China,0
2398,Rockford,42.2596,-89.064,United States,
2399,Savannah,32.0286,-81.1821,United States,
2400,Itagüí,6.1667,-75.6167,Colombia,0
2401,Croix-des-Bouquets,18.5761,-72.2269,Haiti,
2402,Farg‘ona,40.3864,71.7864,Uzbekistan,1
2403,Magway,20.15,94.95,Myanmar,1
2404,Huixquilucan,19.3611,-99.3508,Mexico,0
2405,Lincoln,40.8099,-96.6784,United States,1
2406,Ichalkaranji,16.7,74.47,India,
2407,Punto Fijo,11.7167,-70.1833,Venezuela,0
2408,Várzea Grande,-15.65,-56.1333,Brazil,
2409,Sincelejo,9.295,-75.3961,Colombia,1
2410,Ibaraki,34.8164,135.5686,Japan,
2411,Katowice,50.2667,19.0167,Poland,1
2412,Ar Ruşayfah,32.0178,36.0464,Jordan,0
2413,Camaçari,-12.6978,-38.3239,Brazil,
2414,Jersey City,40.7184,-74.0686,United States,
2415,San Cristóbal,7.7682,-72.2322,Venezuela,1
2416,Round Lake Beach,42.3791,-88.0811,United States,
2417,Bolton,53.578,-2.429,United Kingdom,
2418,San Pablo,14.07,121.325,Philippines,
2419,Suzano,-23.5428,-46.3108,Brazil,
2420,Korhogo,9.4167,-5.6167,Côte d'Ivoire,1
2421,Bhatinda,30.23,74.9519,India,
2422,Cascavel,-24.9556,-53.4553,Brazil,
2423,Flint,43.0236,-83.6921,United States,
2424,Ostrava,49.8356,18.2925,Czechia,1
2425,Tacna,-18.0147,-70.2489,Peru,1
2426,Shreveport,32.4653,-93.7955,United States,
2427,Al Qurnah,31.0158,47.4306,Iraq,0
2428,Jālna,19.841,75.8864,India,
2429,Aarhus,56.1572,10.2107,Denmark,0
2430,Constanţa,44.1667,28.6333,Romania,1
2431,San Juan Sacatepéquez,14.7189,-90.6442,Guatemala,0
2432,Myeik,12.4333,98.6,Myanmar,
2433,Fukushima,37.7608,140.4747,Japan,1
2434,Coro,11.395,-69.6816,Venezuela,1
2435,Bago,17.3333,96.4833,Myanmar,1
2436,Pasarkemis,-6.1703,106.53,Indonesia,
2437,Fuquan,26.7039,107.5087,China,
2438,Tongchuanshi,35.08,109.03,China,
2439,Sannai,24.5984,80.8281,India,
2440,Huozhou,36.5726,111.7176,China,
2441,Temuco,-38.7333,-72.6667,Chile,1
2442,Ihosy,-22.4036,46.1258,Madagascar,0
2443,Sterlitamak,53.6333,55.95,Russia,
2444,Tegal,-6.8667,109.1333,Indonesia,
2445,Ica,-14.0667,-75.7333,Peru,1
2446,Lucena,13.9333,121.6167,Philippines,1
2447,Plano,33.0502,-96.7486,United States,
2448,Jining,41.03,113.08,China,
2449,Chuncheon,37.8667,127.7333,South Korea,1
2450,Malārd,35.6658,50.9767,Iran,0
2451,Pematangsiantar,2.96,99.06,Indonesia,
2452,Satna,24.6005,80.8322,India,
2453,Long Xuyên,10.3736,105.4458,Vietnam,1
2454,Myrtle Beach,33.7094,-78.8844,United States,
2455,Governador Valadares,-18.85,-41.9333,Brazil,
2456,Petrozavodsk,61.7833,34.35,Russia,1
2457,Santa Ana,13.995,-89.5561,El Salvador,1
2458,Mau,25.9417,83.5611,India,
2459,Companiganj,22.875,91.2833,Bangladesh,
2460,Wiesbaden,50.0825,8.24,Germany,1
2461,Mingaora,34.7717,72.36,Pakistan,
2462,Davenport,41.5565,-90.6053,United States,
2463,Bukhara,39.7667,64.4333,Uzbekistan,1
2464,Sumbe,-11.2053,13.8417,Angola,1
2465,Việt Trì,21.3,105.4333,Vietnam,1
2466,Sunderland,54.906,-1.381,United Kingdom,
2467,Bārāsat,22.72,88.48,India,
2468,Cherkasy,49.4444,32.0597,Ukraine,1
2469,Maastricht,50.85,5.6833,Netherlands,1
2470,Çorlu,41.15,27.8,Turkey,0
2471,Kostroma,57.7681,40.9269,Russia,1
2472,Gyeongsan,35.8167,128.7333,South Korea,
2473,Ciego de Ávila,21.8481,-78.7631,Cuba,1
2474,Mamuju,-2.6833,118.9,Indonesia,1
2475,Los Alcarrizos,18.5167,-70.0167,Dominican Republic,
2476,Nizhnevartovsk,60.95,76.6,Russia,
2477,San Mateo,14.6969,121.1219,Philippines,
2478,Shaowu,27.3417,117.4869,China,0
2479,Canton,40.8078,-81.3676,United States,
2480,Sfax,34.74,10.76,Tunisia,1
2481,Dinājpur,25.6167,88.65,Bangladesh,
2482,Dire Dawa,9.6,41.8667,Ethiopia,1
2483,Gagnoa,6.1333,-5.9333,Côte d'Ivoire,1
2484,Khmelnytskyi,49.4167,27,Ukraine,1
2485,Farrukhābād,27.39,79.581,India,
2486,Lashkar Gāh,31.5831,64.3692,Afghanistan,1
2487,Posadas,-27.3667,-55.9,Argentina,1
2488,Gatineau,45.4833,-75.65,Canada,
2489,Windsor,42.2833,-83,Canada,
2490,Santa Clarita,34.4175,-118.4964,United States,
2491,Kunsan,35.9833,126.7167,South Korea,
2492,Minato,35.658,139.7515,Japan,
2493,Qarshi,38.8667,65.8,Uzbekistan,1
2494,Chula Vista,32.6281,-117.0144,United States,
2495,Saugor,23.83,78.71,India,
2496,Kafr ad Dawwār,31.1311,30.13,Egypt,
2497,Ratlām,23.334,75.037,India,
2498,Yeosu,34.7607,127.6622,South Korea,0
2499,Crato,-7.4639,-63.04,Brazil,
2500,Mỹ Tho,10.35,106.35,Vietnam,1
2501,Volta Redonda,-22.5228,-44.1039,Brazil,
2502,Eugene,44.0564,-123.1174,United States,
2503,Tsu,34.7184,136.5057,Japan,1
2504,Novorossiysk,44.7167,37.75,Russia,
2505,Bijiao,22.9311,113.2018,China,
2506,Székesfehérvár,47.1956,18.4089,Hungary,1
2507,Soubré,5.7833,-6.6,Côte d'Ivoire,0
2508,Palmas,-10.1844,-48.3336,Brazil,1
2509,Majene,-3.5403,118.9707,Indonesia,0
2510,Sorong,-0.8667,131.25,Indonesia,
2511,Chandler,33.2825,-111.8514,United States,
2512,Craiova,44.3333,23.8167,Romania,1
2513,Thái Bình,20.4461,106.3422,Vietnam,1
2514,Binjai,3.5986,98.4803,Indonesia,
2515,Fuchū,35.6689,139.4776,Japan,
2516,Gabela,-10.85,14.3667,Angola,
2517,Sakarya,40.7833,30.4,Turkey,1
2518,Dayr az Zawr,35.3333,40.15,Syria,1
2519,Brāhmanbāria,23.9656,91.108,Bangladesh,
2520,Mito,36.3658,140.4712,Japan,1
2521,Sartā,36.4491,53.3234,Iran,
2522,Plymouth,50.3714,-4.1422,United Kingdom,
2523,Santo Domingo de los Colorados,-0.2542,-79.1719,Ecuador,1
2524,Arnavutköy,41.1856,28.7406,Turkey,
2525,Nguru,12.8792,10.4525,Nigeria,0
2526,Maradi,13.4833,7.1,Niger,1
2527,Gombe,10.2904,11.17,Nigeria,1
2528,Gijón,43.5333,-5.7,Spain,
2529,Drug,21.19,81.28,India,
2530,Floridablanca,7.2167,-73.0667,Colombia,0
2531,Handwāra,34.4,74.28,India,
2532,Quilmes,-34.7167,-58.2667,Argentina,0
2533,Talisay,10.25,123.8333,Philippines,
2534,Kunduz,36.7286,68.8681,Afghanistan,1
2535,Yoshkar-Ola,56.6328,47.8958,Russia,1
2536,Nalchik,43.4833,43.6167,Russia,1
2537,Aswān,24.0889,32.8997,Egypt,1
2538,Ichihara,35.4981,140.1154,Japan,
2539,Salem,44.9233,-123.0244,United States,1
2540,Zhytomyr,50.25,28.6667,Ukraine,1
2541,Imphāl,24.8074,93.9384,India,1
2542,İnegöl,40.0806,29.5097,Turkey,0
2543,Chernivtsi,48.3,25.9333,Ukraine,1
2544,Tarija,-21.5333,-64.7333,Bolivia,1
2545,Siddhirganj,23.6833,90.5167,Bangladesh,
2546,Bimo,4.2558,18.4042,Central African Republic,
2547,Heroica Nogales,31.3186,-110.9458,Mexico,0
2548,Bergen,60.3894,5.33,Norway,1
2549,Sumaré,-22.8219,-47.2669,Brazil,
2550,Feni,23.0183,91.41,Bangladesh,
2551,Sumy,50.9167,34.75,Ukraine,1
2552,Anantapur,14.68,77.599,India,
2553,Westminster,51.4947,-0.1353,United Kingdom,
