id,city,lat,lng,country,capital,description
1392685764,Tokyo,35.6897,139.6922,Japan,0,
1360771077,Jakarta,-6.175,106.8275,Indonesia,0,
1356872604,Delhi,28.61,77.23,India,1,
1156237133,Guangzhou,23.13,113.26,China,1,
1356226629,Mumbai,19.0761,72.8775,India,1,
1608618140,Manila,14.5958,120.9772,Philippines,0,
1156073548,Shanghai,31.1667,121.4667,China,1,
1076532519,São Paulo,-23.55,-46.6333,Brazil,1,
1410836482,Seoul,37.56,126.99,South Korea,0,
1484247881,Mexico City,19.4333,-99.1333,Mexico,0,
1818253931,Cairo,30.0444,31.2358,Egypt,0,
1840034016,New York,40.6943,-73.9249,United States,0,
1050529279,Dhaka,23.7639,90.3889,Bangladesh,0,
1156228865,Beijing,39.904,116.4075,China,0,
1356060520,Kolkāta,22.5675,88.37,India,1,
1764068610,Bangkok,13.7525,100.4942,Thailand,0,
1156158707,Shenzhen,22.535,114.054,China,0,
1643318494,Moscow,55.7558,37.6178,Russia,0,
1032717330,Buenos Aires,-34.5997,-58.3819,Argentina,0,
1566593751,Lagos,6.455,3.3841,Nigeria,0,
1792756324,Istanbul,41.0136,28.955,Turkey,1,
1586129469,Karachi,24.86,67.01,Pakistan,1,
1356410365,Bangalore,12.9789,77.5917,India,1,
1704774326,Ho Chi Minh City,10.7756,106.7019,Vietnam,1,
1392419823,Ōsaka,34.6939,135.5022,Japan,1,
1156421555,Chengdu,30.66,104.0633,China,1,
1364305026,Tehran,35.6892,51.3889,Iran,0,
1180000363,Kinshasa,-4.325,15.3222,Congo (Kinshasa),0,
1076887657,Rio de Janeiro,-22.9111,-43.2056,Brazil,1,
1356374944,Chennai,13.0825,80.275,India,1,
1156244079,Xi’an,34.2667,108.9,China,1,
1586801463,Lahore,31.5497,74.3436,Pakistan,1,
1156936556,Chongqing,29.55,106.5069,China,1,
1840020491,Los Angeles,34.1141,-118.4068,United States,,
1156256829,Baoding,38.8671,115.4845,China,,
1826645935,London,51.5072,-0.1275,United Kingdom,0,
1250015082,Paris,48.8567,2.3522,France,0,
1156086320,Linyi,35.1041,118.3502,China,0,
1156478242,Dongguan,23.0475,113.7493,China,0,
1356871768,Hyderābād,17.385,78.4867,India,1,
1156174046,Tianjin,39.1467,117.2056,China,1,
1604728603,Lima,-12.06,-77.0375,Peru,0,
1156117184,Wuhan,30.5872,114.2881,China,1,
1156192287,Nanyang,32.9987,112.5292,China,0,
1156275243,Hangzhou,30.25,120.1675,China,1,
1156738403,Foshan,23.0292,113.1056,China,0,
1392407472,Nagoya,35.1833,136.9,Japan,1,
1158881289,Taipei,25.0375,121.5625,Taiwan,0,
1156241678,Tongshan,34.261,117.1859,China,0,
1024949724,Luanda,-8.8383,13.2344,Angola,0,
1156272098,Zhoukou,33.625,114.6418,China,0,
1156832475,Ganzhou,25.8292,114.9336,China,0,
1458988644,Kuala Lumpur,3.1478,101.6953,Malaysia,0,
1156225008,Heze,35.2333,115.4333,China,0,
1156829655,Quanzhou,24.9139,118.5858,China,0,
1840000494,Chicago,41.8375,-87.6866,United States,0,
1156644065,Nanjing,32.0608,118.7789,China,1,
1156504601,Jining,35.4,116.5667,China,0,
1704413791,Hanoi,21.0283,105.8542,Vietnam,0,
1356081074,Pune,18.5203,73.8567,India,0,
1156248008,Fuyang,32.8986,115.8045,China,0,
1356304381,Ahmedabad,23.03,72.58,India,0,
1710550792,Johannesburg,-26.2044,28.0456,South Africa,1,
1170483426,Bogotá,4.7111,-74.0722,Colombia,0,
1834843853,Dar es Salaam,-6.8161,39.2803,Tanzania,0,
1156309382,Shenyang,41.8025,123.4281,China,1,
1729268475,Khartoum,15.5006,32.56,Sudan,0,
1156805441,Shangqiu,34.4259,115.6467,China,0,
1156698069,Cangzhou,38.3037,116.8452,China,0,
1344982653,Hong Kong,22.3,114.2,Hong Kong,0,
1156310366,Shaoyang,27.2418,111.4725,China,,
1156502170,Zhanjiang,21.1967,110.4031,China,0,
1156995410,Yancheng,33.3936,120.1339,China,0,
1156696884,Hengyang,26.8968,112.5857,China,,
1682999334,Riyadh,24.6333,46.7167,Saudi Arabia,0,
1156184822,Zhumadian,32.9773,114.0253,China,,
1152554349,Santiago,-33.4372,-70.6506,Chile,0,
1156294952,Xingtai,37.0659,114.4753,China,,
1050830722,Chattogram,22.335,91.8325,Bangladesh,1,
1156018927,Bijie,27.3019,105.2863,China,,
1156405492,Shangrao,28.4419,117.9633,China,0,
1156539782,Zunyi,27.705,106.9336,China,,
1356758738,Sūrat,21.1702,72.8311,India,,
1360484663,Surabaya,-7.2458,112.7378,Indonesia,1,
1156200037,Huanggang,30.45,114.875,China,0,
1156568722,Maoming,21.6618,110.9178,China,0,
1156762337,Nanchong,30.7991,106.0784,China,0,
1156273453,Xinyang,32.1264,114.0672,China,,
1724616994,Madrid,40.4169,-3.7033,Spain,0,
1368596238,Baghdad,33.3153,44.3661,Iraq,0,
1156747998,Qujing,25.5102,103.8029,China,,
1156260378,Jieyang,23.5533,116.3649,China,0,
1702341327,Singapore,1.3,103.8,Singapore,0,
1356718332,Prayagraj,25.4358,81.8464,India,,
1156006600,Liaocheng,36.45,115.9833,China,0,
1156175472,Dalian,38.9,121.6,China,,
1156901312,Yulin,22.6293,110.1507,China,0,
1156449091,Changde,29.0397,111.6839,China,0,
1156112588,Qingdao,36.1167,120.4,China,0,
1120494607,Douala,4.05,9.7,Cameroon,1,
1840015149,Miami,25.784,-80.2101,United States,,
1156127660,Nangandao,35.2992,113.8851,China,0,
1156644508,Pudong,31.2231,121.5397,China,0,
1156107325,Xiangyang,32.0654,112.1531,China,0,
1840019440,Dallas,32.7935,-96.7667,United States,,
1840020925,Houston,29.786,-95.3885,United States,,
1156183137,Zhengzhou,34.7492,113.6605,China,1,
1156499624,Lu’an,31.7542,116.5078,China,0,
1156524080,Dezhou,37.4513,116.3105,China,0,
1156972469,Jinan,36.6667,116.9833,China,1,
1818925479,Giza,29.987,31.2118,Egypt,1,
1156924687,Zhaotong,27.3328,103.7144,China,,
1156229590,Yichun,27.8041,114.383,China,0,
1404000661,Nairobi,-1.2864,36.8172,Kenya,0,
1484950208,Guadalajara,20.6767,-103.3475,Mexico,1,
1840000673,Philadelphia,40.0077,-75.1339,United States,,
1792572891,Ankara,39.93,32.85,Turkey,0,
1156095188,Tai’an,36.2001,117.0809,China,,
1156834076,Dazhou,31.2152,107.4947,China,0,
1156109017,Langfang,39.5196,116.7006,China,,
1156694479,Yongzhou,26.4515,111.5953,China,,
1124279679,Toronto,43.7417,-79.3733,Canada,1,
1156235493,Suihua,46.6384,126.9808,China,0,
1643616350,Saint Petersburg,59.95,30.3167,Russia,1,
1156775905,Qiqihar,47.3398,123.9512,China,0,
1156871297,Suzhou,33.6333,116.9683,China,,
1484559591,Monterrey,25.6667,-100.3,Mexico,1,
1076967355,Belo Horizonte,-19.9167,-43.9333,Brazil,1,
1156903687,Weinan,34.4996,109.4684,China,0,
1104616656,Rangoon,16.795,96.16,Myanmar,0,
1156241637,Zhangzhou,24.5093,117.6612,China,0,
1156705644,Yuncheng,35.0304,110.998,China,,
1156120117,Xianyang,34.35,108.7167,China,0,
1156235364,Guilin,25.2819,110.2864,China,0,
1840013660,Atlanta,33.7628,-84.422,United States,1,
1156119229,Taizhou,32.4831,119.9,China,0,
1364006067,Kāshān,33.9833,51.4333,Iran,0,
1156356860,Bozhou,33.8626,115.7742,China,,
1384207980,Abidjan,5.3167,-4.0333,Côte d'Ivoire,0,
1156212349,Suqian,33.9331,118.2831,China,,
1156353465,Huaihua,27.5494,109.9592,China,,
1156278215,Ji’an,27.1172,114.9793,China,0,
1156002290,Xiaoganzhan,30.9273,113.911,China,,
1156735124,Pingdingshan,33.735,113.2999,China,,
1156206041,Jiujiang,29.7048,116.0021,China,0,
1818695837,Alexandria,31.1975,29.8925,Egypt,1,
1156417758,Mianyang,31.4669,104.7385,China,0,
1036074917,Sydney,-33.8678,151.21,Australia,1,
1156198356,Huanglongsi,34.795,114.345,China,,
1840006060,Washington,38.9047,-77.0163,United States,0,
1724594040,Barcelona,41.3825,2.1769,Spain,1,
1156961497,Changsha,28.1987,112.9709,China,1,
1156291915,Chenzhou,25.7989,113.0267,China,0,
1156238875,Anqing,30.5,117.0333,China,0,
1156105613,Jiangmen,22.5833,113.0833,China,0,
1156035381,Xinpu,34.5906,119.1801,China,0,
1156107603,Yibin,28.7596,104.64,China,0,
1156818601,Yangzhou,32.3912,119.4363,China,,
1036533631,Melbourne,-37.8142,144.9631,Australia,1,
1276451290,Berlin,52.52,13.405,Germany,0,
1156803028,Hengshui,37.7348,115.686,China,,
1170815311,Timbío,2.3445,-76.6839,Colombia,0,
1156477539,Kunming,25.0433,102.7061,China,1,
1156218615,Yiyang,28.5833,112.3333,China,,
1156895251,Guigang,23.0961,109.6092,China,0,
1156078103,Changchun,43.9,125.2,China,1,
1156235735,Jiangguanchi,34.0244,113.8201,China,0,
1504175315,Casablanca,33.5333,-7.5833,Morocco,1,
1156361028,Meizhou,24.2998,116.1191,China,0,
1156800221,Zhangjiakou,40.8108,114.8811,China,0,
1156277458,Chifeng,42.2663,118.9223,China,0,
1156051276,Ürümqi,43.8225,87.6125,China,1,
1156029196,Suzhou,31.3,120.6194,China,0,
1792725579,İzmir,38.42,27.14,Turkey,1,
1156416074,Linfen,36.0812,111.5087,China,,
1156457499,Shantou,23.3735,116.6941,China,0,
1004993580,Kabul,34.5253,69.1783,Afghanistan,0,
1706893395,Mogadishu,2.0392,45.3419,Somalia,0,
1156582079,Luzhou,28.8918,105.4409,China,0,
1156332710,Hefei,31.8639,117.2808,China,1,
1840000455,Boston,42.3188,-71.0852,United States,1,
1156360785,Liuzhou,24.3264,109.4281,China,0,
1156170144,Zhaoqing,23.05,112.4667,China,0,
1156764447,Xiaoxita,30.7083,111.2803,China,0,
1156217541,Shijiazhuang,38.0422,114.5086,China,1,
1156170787,Ningbo,29.875,121.5492,China,0,
1156915325,Fuzhou,27.9814,116.3577,China,,
1840020568,Phoenix,33.5722,-112.0892,United States,1,
1156041962,Zhuzhou,27.8407,113.1469,China,0,
1400522593,Amman,31.9497,35.9328,Jordan,0,
1156036420,Chuzhou,32.3062,118.3115,China,,
1682926944,Jeddah,21.5433,39.1728,Saudi Arabia,,
1156135890,Qingyuan,23.6842,113.0507,China,0,
1156010654,Loudi,27.7378,111.9974,China,,
1156564962,Binzhou,37.3806,118.0125,China,,
1156127147,Deyang,31.1289,104.395,China,0,
1156632014,Taiyuan,37.8733,112.5425,China,1,
1566422868,Kano,12,8.5167,Nigeria,1,
1156315512,Wuhu,31.334,118.3622,China,0,
1156605439,Nanning,22.8192,108.315,China,1,
1156241528,Harbin,45.75,126.6333,China,1,
1566342270,Abuja,9.0667,7.4833,Nigeria,0,
1392118339,Yokohama,35.4442,139.6381,Japan,1,
1156101096,Baojishi,34.3609,107.1751,China,,
1156796454,Zaozhuang,34.8667,117.55,China,,
1156212809,Xiamen,24.4797,118.0819,China,0,
1156516335,Neijiang,29.5872,105.0635,China,0,
1156188037,Fuzhou,26.0769,119.2917,China,1,
1156981113,Baicheng,23.901,106.6194,China,0,
1156901825,Anshan,41.1066,122.9895,China,,
1360543171,Medan,3.5894,98.6739,Indonesia,1,
1156280672,Yulinshi,38.2655,109.7388,China,,
1156188829,Wenzhou,27.9991,120.6561,China,,
1156185511,Changzhou,31.8122,119.9692,China,0,
1156431924,Puyang,35.7639,115.03,China,0,
1156157854,Jiaozuo,35.229,113.2304,China,,
1156198892,Nanchang,28.6842,115.8872,China,1,
1566366407,Ibadan,7.3964,3.9167,Nigeria,1,
1156167204,Hechi,24.6928,108.085,China,0,
1840003971,Detroit,42.3834,-83.1024,United States,,
1124586170,Montréal,45.5089,-73.5617,Canada,,
1410601465,Busan,35.18,129.075,South Korea,1,
1156210167,Hohhot,40.8151,111.6629,China,1,
1840021117,Seattle,47.6211,-122.3244,United States,,
1012973369,Algiers,36.7539,3.0589,Algeria,0,
1156382678,Hanzhong,33.0794,107.026,China,,
1156904299,Tangshan,39.6292,118.1742,China,,
1156383921,Shiyan,32.6351,110.7755,China,0,
1356891790,Lucknow,26.85,80.95,India,1,
1156063295,Siping,43.1715,124.3644,China,0,
1364123206,Mashhad,36.3,59.6,Iran,1,
1288164978,Boankra,6.6944,-1.4028,Ghana,,
1156057944,Changzhi,36.1953,113.097,China,0,
1784736618,Dubai,25.2631,55.2972,United Arab Emirates,1,
1156106602,Qinzhou,21.95,108.6167,China,0,
1156932620,Guiyang,26.5794,106.7078,China,1,
1156440668,Bengbu,32.9354,117.3531,China,,
1840021543,San Francisco,37.7558,-122.4449,United States,,
1156271365,Bazhou,31.8576,106.7559,China,0,
1156104017,Qincheng,34.5809,105.7311,China,0,
1156655650,Suining,30.5098,105.5737,China,0,
1156019650,Wuxi,31.5667,120.2833,China,0,
1156203130,Leshan,29.5854,103.7575,China,,
1156811601,Putian,25.4394,119.0103,China,0,
1156934125,Zhenjiang,32.2109,119.4551,China,0,
1586323916,Faisalabad,31.4167,73.0911,Pakistan,0,
1156377302,Guang’an,30.4673,106.6336,China,0,
1156803442,Tongren,27.7233,109.1885,China,,
1068129363,Santa Cruz,-17.7892,-63.1975,Bolivia,1,
1156091093,Qinhuangdao,39.9398,119.5881,China,,
1156358686,Tongliao,43.6172,122.264,China,0,
1156157151,Jinzhou,41.1144,121.1292,China,,
1156665165,Heyuan,23.7503,114.6923,China,0,
1840021990,San Diego,32.8313,-117.1222,United States,,
1356293537,Jaipur,26.9,75.8,India,1,
1156617534,Xinzhou,38.4178,112.7233,China,0,
1156280566,Lanzhou,36.0617,103.8318,China,1,
1156620133,Wuzhou,23.4833,111.3167,China,0,
1300715560,Athens,37.9842,23.7281,Greece,0,
1231824991,Addis Ababa,9.03,38.74,Ethiopia,0,
1156706927,Chaoyang,41.5757,120.4486,China,,
1076144436,Brasília,-15.7939,-47.8828,Brazil,0,
1158689622,Taichung,24.1439,120.6794,Taiwan,1,
1414102075,Kuwait City,29.3697,47.9783,Kuwait,0,
1348611435,Budapest,47.4925,19.0514,Hungary,0,
1156617066,Shaoguan,24.8011,113.5927,China,0,
1156939010,Shanwei,22.7664,115.3331,China,0,
1608974097,Quezon City,14.63,121.03,Philippines,1,
1156032841,Rizhao,35.4164,119.4331,China,0,
1804382913,Kyiv,50.45,30.5233,Ukraine,0,
1887750814,Sanaa,15.3483,44.2064,Yemen,0,
1156185501,Meishan,30.0575,103.8381,China,,
1410160313,Incheon,37.4833,126.6333,South Korea,1,
1320197916,Guatemala City,14.6099,-90.5252,Guatemala,0,
1826423213,Birmingham,52.48,-1.9025,United Kingdom,,
1156579621,Zhongshan,22.5333,113.35,China,0,
1156909802,Ningde,26.6617,119.5228,China,0,
1156473300,Weihai,37.5,122.1,China,0,
1156403962,Daqing,46.5979,125.008,China,0,
1792903330,Bursa,40.1833,29.05,Turkey,1,
1076923789,Salvador,-12.9747,-38.4767,Brazil,1,
1380382862,Rome,41.8931,12.4828,Italy,0,
1156183327,Haikou,20.02,110.32,China,1,
1068000064,La Paz,-16.5,-68.15,Bolivia,0,
1156195684,Xiangtan,27.8431,112.9228,China,,
1408738594,Pyongyang,39.0194,125.7381,North Korea,0,
1840007830,Minneapolis,44.9635,-93.2678,United States,,
1729912179,Omdurman,15.65,32.4833,Sudan,,
1360141408,Malang,-7.98,112.62,Indonesia,,
1156249698,Mudanjiang,44.5861,129.5997,China,0,
1276171358,Stuttgart,48.7775,9.18,Germany,1,
1840034030,Brooklyn,40.6501,-73.9496,United States,,
1158331334,Kaohsiung,22.615,120.2975,Taiwan,1,
1218802178,Guayaquil,-2.19,-79.8875,Ecuador,1,
1620619017,Lisbon,38.7253,-9.15,Portugal,0,
1156012979,Longyan,25.0881,117.0244,China,0,
1156089994,Tieling,42.2841,123.8365,China,,
1826246335,Manchester,53.4794,-2.2453,United Kingdom,,
1156032751,Baotou,40.6562,109.8345,China,,
1156957080,Handan,36.6116,114.4894,China,0,
1356575238,Cawnpore,26.4499,80.3319,India,,
1156518274,Dingxi,35.5806,104.6263,China,0,
1156927445,Nanping,26.6448,118.1728,China,0,
1840015982,Tampa,27.9945,-82.4447,United States,,
1156023354,Zigong,29.3498,104.7645,China,,
1862072711,Maracaibo,10.6333,-71.6333,Venezuela,1,
1156549118,Chaozhou,23.67,116.63,China,0,
1180399586,Mbuji-Mayi,-6.15,23.6,Congo (Kinshasa),1,
1840018789,Denver,39.762,-104.8758,United States,1,
1156680279,Gulou,26.0865,119.298,China,0,
1156912965,Weifang,36.7167,119.1,China,,
1156634228,Huai’an,33.5058,119.1392,China,,
1156381094,Zibo,36.7831,118.0497,China,,
1156255711,Ankang,32.6877,109.0235,China,,
1156546994,Baoshan,25.1211,99.169,China,,
1450978461,Antananarivo,-18.9333,47.5167,Madagascar,0,
1156580218,Huludao,40.7094,120.8378,China,0,
1276692352,Munich,48.1375,11.575,Germany,1,
1156217114,Yanjiang,30.1256,104.6397,China,0,
1214636202,Santo Domingo,18.4764,-69.8933,Dominican Republic,0,
1156294429,Sanming,26.2658,117.6302,China,0,
1860331871,Tashkent,41.3111,69.2797,Uzbekistan,0,
1156633259,Longba,33.535,105.349,China,,
1156123172,Yangjiang,21.8556,111.9627,China,0,
1156350864,Jiamusi,46.8081,130.3653,China,0,
1156330876,Luohe,33.583,114.0109,China,0,
1156044130,Lincang,23.8864,100.0871,China,,
1170680389,Medellín,6.2308,-75.5906,Colombia,1,
1156424311,Xuanzhou,30.9475,118.7518,China,,
1156057251,Yunfu,22.9242,112.0353,China,0,
1156893449,Shaoxing,30,120.5833,China,0,
1156932948,Yantai,37.3997,121.2664,China,,
1156203268,Huizhou,23.1115,114.4152,China,0,
1156858793,Lishui,28.45,119.9167,China,0,
1356427908,Mirzāpur,25.146,82.569,India,,
1276041799,Hamburg,53.55,10,Germany,1,
1156084562,Guangyuan,32.4353,105.8398,China,,
1170417589,Cali,3.4206,-76.5222,Colombia,1,
1894157390,Lusaka,-15.4167,28.2833,Zambia,0,
1156234290,Huangshi,30.2018,115.0326,China,0,
1156081448,Xining,36.6239,101.7787,China,1,
1854029208,Ouagadougou,12.3686,-1.5275,Burkina Faso,0,
1410095252,Daegu,35.8717,128.6017,South Korea,1,
1076567885,Fortaleza,-3.7275,-38.5275,Brazil,1,
1120298240,Yaoundé,3.8667,11.5167,Cameroon,0,
1156646448,Jilin,43.8519,126.5481,China,,
1156178316,Dandong,40.1167,124.3833,China,,
1156722242,Zhuhai,22.2769,113.5678,China,0,
1156046704,Lianshan,40.7523,120.828,China,0,
1156257074,Yingkou,40.6653,122.2297,China,0,
1792988434,Antalya,36.8874,30.7075,Turkey,1,
1356365743,Nāgpur,21.1497,79.0806,India,1,
1840034002,Queens,40.7498,-73.7976,United States,,
1288299415,Accra,5.55,-0.2,Ghana,0,
1360006015,Bekasi,-6.2349,106.9923,Indonesia,,
1356691871,Ghāziābād,28.67,77.42,India,,
1156682309,Yuxi,24.3495,102.5432,China,0,
1156069315,Luoyang,34.6587,112.4245,China,,
1036192929,Brisbane,-27.4678,153.0281,Australia,1,
1156415948,Anshun,26.2456,105.934,China,,
1360962899,Depok,-6.394,106.8225,Indonesia,,
1156091241,Shangzhou,33.868,109.9244,China,,
1156877299,Huainan,32.4831,117.0164,China,,
1144251314,Colombo,6.9344,79.8428,Sri Lanka,0,
1156106507,Kuaidamao,41.7302,125.9471,China,0,
1031946365,Baku,40.3667,49.8352,Azerbaijan,0,
1392576294,Fukuoka,33.5833,130.4,Japan,1,
1156546342,Yan’an,36.5952,109.4863,China,,
1156163376,Jincheng,35.4906,112.8483,China,0,
1124825478,Vancouver,49.25,-123.1,Canada,,
1156045365,Nantong,31.9829,120.8873,China,0,
1360002844,Tangerang,-6.1783,106.6319,Indonesia,,
1862748204,Caracas,10.4806,-66.9036,Venezuela,0,
1156529682,Sanmenxia,34.7736,111.195,China,,
1156925734,Laibin,23.7333,109.2333,China,0,
1792014004,Konya,37.8667,32.4833,Turkey,1,
1076607274,Manaus,-3.1,-60.0167,Brazil,1,
1364023865,Eşfahān,32.6447,51.6675,Iran,1,
1156032582,Qinbaling,35.7278,107.64,China,,
1840001592,Baltimore,39.3051,-76.6144,United States,,
1156847452,Ma’anshan,31.6858,118.5101,China,0,
1156672254,Shengli,37.45,118.4667,China,0,
1156522457,Gaoping,30.7824,106.1281,China,0,
1156322307,Taizhou,28.6583,121.4221,China,0,
1716196799,Harare,-17.8292,31.0522,Zimbabwe,0,
1344538284,Kowloon,22.3167,114.1833,Hong Kong,,
1840020364,Las Vegas,36.2333,-115.2654,United States,,
1192752771,Havana,23.1367,-82.3589,Cuba,0,
1036178956,Perth,-31.9559,115.8606,Australia,1,
1116260534,Phnom Penh,11.5694,104.9211,Cambodia,0,
1156756494,Puning,23.2993,116.1586,China,,
1156142626,Huaibei,33.9562,116.789,China,,
1156273372,Qingyang,24.8141,118.5792,China,0,
1704000623,Haiphong,20.8651,106.6838,Vietnam,1,
1156438670,Chongzuo,22.4167,107.3667,China,0,
1586344001,Rawalpindi,33.6,73.0333,Pakistan,0,
1156245000,Yushan,31.3867,120.9766,China,0,
1840001651,St. Louis,38.6359,-90.2451,United States,,
1288181103,Kumasi,6.6667,-1.6167,Ghana,1,
1356705249,Vadodara,22.3,73.2,India,,
1156459799,Hezhou,24.4164,111.5478,China,0,
1156216904,Pingliang,35.5412,106.6819,China,0,
1840019941,Portland,45.5371,-122.65,United States,,
1356692563,Vishākhapatnam,17.7042,83.2978,India,,
1586400472,Gujranwala,32.1567,74.19,Pakistan,0,
1156435764,Baicheng,45.6148,122.832,China,0,
1792911843,Gaziantep,37.0628,37.3792,Turkey,1,
1156857743,Fushun,41.8708,123.8917,China,,
1840020551,Riverside,33.9381,-117.3949,United States,,
1466965925,Bamako,12.6458,-7.9922,Mali,0,
1218441993,Quito,-0.22,-78.5125,Ecuador,0,
1112348503,Minsk,53.9,27.5667,Belarus,0,
1484708778,Tijuana,32.525,-117.0333,Mexico,0,
1120909610,Bamenda,5.9614,10.1517,Cameroon,1,
1706054548,Boosaaso,11.2886,49.1819,Somalia,1,
1356402812,Indore,22.7167,75.8472,India,,
1792937570,Şanlıurfa,37.1583,38.7917,Turkey,1,
1040261752,Vienna,48.2083,16.3725,Austria,0,
1364258511,Karaj,35.8272,50.9489,Iran,1,
1180172460,Kananga,-5.897,22.4488,Congo (Kinshasa),1,
1586851102,Peshawar,34.0144,71.5675,Pakistan,1,
1392000195,Sapporo,43.0667,141.35,Japan,1,
1484003694,Ecatepec,19.6097,-99.06,Mexico,0,
1156066465,Pingxiang,27.6333,113.85,China,0,
1840015099,Orlando,28.4773,-81.337,United States,,
1760366651,Aleppo,36.2,37.16,Syria,1,
1840021491,Sacramento,38.5677,-121.4685,United States,1,
1398351701,Almaty,43.2775,76.8958,Kazakhstan,1,
1630035577,San Juan,18.3985,-66.061,Puerto Rico,0,
1840022220,San Antonio,29.4632,-98.5238,United States,,
1156359072,Yinchuan,38.4795,106.2254,China,1,
1356681152,Thāne,19.1972,72.9722,India,,
1076033299,Santos,-23.9369,-46.325,Brazil,,
1454145012,Blantyre,-15.7861,35.0058,Malawi,1,
1642414442,Bucharest,44.4325,26.1039,Romania,0,
1076701712,Curitiba,-25.4297,-49.2711,Brazil,1,
1586256291,Multan,30.1978,71.4697,Pakistan,0,
1158061376,Tainan,22.9833,120.1833,Taiwan,1,
1156898522,Xiping,40.082,113.2981,China,0,
1566070649,Port Harcourt,4.8242,7.0336,Nigeria,1,
1616024847,Warsaw,52.23,21.0111,Poland,0,
1156393765,Jixi,45.2937,130.965,China,0,
1586619596,Saidu Sharif,34.75,72.3572,Pakistan,0,
1156202749,Liaoyang,41.2643,123.1772,China,,
1156421449,Beihai,21.4667,109.1,China,0,
1404588252,Meru,0.05,37.65,Kenya,1,
1178340306,Brazzaville,-4.2694,15.2714,Congo (Brazzaville),0,
1156141954,Fuxin,42.0127,121.6486,China,,
1156760291,Wuwei,37.9278,102.6329,China,0,
1792520282,Mersin,36.8,34.6333,Turkey,1,
1356734039,Bhopāl,23.25,77.4167,India,1,
1180506234,Lubumbashi,-11.6647,27.4794,Congo (Kinshasa),1,
1360848527,Denpasar,-8.65,115.2167,Indonesia,1,
1608906877,Davao,7.0667,125.6,Philippines,1,
1156051957,Shuyangzha,34.1299,118.7734,China,,
1792783772,Adana,37,35.3213,Turkey,1,
1760685964,Damascus,33.5131,36.2919,Syria,0,
1056469830,Brussels,50.8467,4.3525,Belgium,0,
1586185019,Hyderabad City,25.3792,68.3683,Pakistan,0,
1792536241,Diyarbakır,37.91,40.24,Turkey,1,
1840021570,San Jose,37.3012,-121.848,United States,,
1356475483,Chinchvad,18.6186,73.8037,India,,
1858107000,Montevideo,-34.8836,-56.1819,Uruguay,0,
1840001254,Pittsburgh,40.4397,-79.9763,United States,,
1156227167,Shuozhou,39.3408,112.4292,China,0,
1840003814,Cincinnati,39.1413,-84.506,United States,,
1156097909,Benxi,41.292,123.761,China,,
1156140738,Baiyin,36.5448,104.1766,China,0,
1368194914,Mosul,36.34,43.13,Iraq,1,
1840034000,Manhattan,40.7834,-73.9662,United States,,
1608897690,Caloocan City,14.65,120.97,Philippines,1,
1800406299,Kampala,0.3136,32.5811,Uganda,0,
1356821429,Patna,25.6,85.1,India,1,
1340344059,Tegucigalpa,14.1,-87.2167,Honduras,0,
1840000596,Cleveland,41.4764,-81.6805,United States,,
1156025536,Sanzhou,30.82,108.4,China,,
1156901538,Changshu,31.65,120.7333,China,,
1682169241,Mecca,21.4225,39.8233,Saudi Arabia,1,
1156339225,Heihe,50.2458,127.4886,China,0,
1156038165,Jingdezhen,29.2942,117.2036,China,0,
1324568159,Conakry,9.5092,-13.7122,Guinea,0,
1076137337,Recife,-8.05,-34.9,Brazil,1,
1840030084,Indianapolis,39.7771,-86.1458,United States,1,
1840019590,Austin,30.3005,-97.7522,United States,1,
1360029147,Sangereng,-6.2889,106.7181,Indonesia,,
1840008535,Kansas City,39.1238,-94.5541,United States,,
1158025380,Zhongli,24.965,121.2168,Taiwan,,
1643399240,Novosibirsk,55.0333,82.9167,Russia,1,
1356820491,Bilāspur,22.09,82.15,India,,
1360745537,Semarang,-6.9667,110.4167,Indonesia,1,
1356929498,Ludhiāna,30.91,75.85,India,,
1050424421,Nārāyanganj,23.62,90.5,Bangladesh,,
1752425602,Stockholm,59.3294,18.0686,Sweden,0,
1156883901,Chengtangcun,35.0833,117.15,China,,
1356187395,Āgra,27.18,78.02,India,,
1466367944,Balandougou,13.3558,-9.5517,Mali,,
1356151564,Agwār,27.18,78.02,India,,
1484811199,León de los Aldama,21.1167,-101.6833,Mexico,0,
1384759584,Yopougon,5.3167,-4.0667,Côte d'Ivoire,,
1484416394,Puebla,19.0333,-98.1833,Mexico,1,
1356257289,Madurai,9.9252,78.1198,India,0,
1156114258,Hebi,35.7497,114.2887,China,,
1032803249,Córdoba,-31.4167,-64.1833,Argentina,1,
1364432238,Shīrāz,29.61,52.5425,Iran,1,
1356501259,Jamshedpur,22.7925,86.1842,India,,
1364141756,Tabrīz,38.0814,46.3006,Iran,1,
1156335543,Huzhou,30.8925,120.0875,China,0,
1840003760,Columbus,39.9862,-82.9855,United States,1,
1100762037,Sofia,42.7,23.33,Bulgaria,0,
1392003356,Kawasaki,35.5167,139.7,Japan,,
1188749877,San José,9.9325,-84.08,Costa Rica,0,
1566262000,Aba,5.1167,7.3667,Nigeria,0,
1360902897,Palembang,-2.9861,104.7556,Indonesia,1,
1156072884,Zhangjiajie,29.1255,110.4844,China,0,
1392978082,Kōbe,34.69,135.1956,Japan,1,
1156491661,Jiaxing,30.7522,120.75,China,0,
1840014557,Charlotte,35.2083,-80.8303,United States,,
1156165517,Guiping,23.4,110.0833,China,0,
1156944106,Lianjiang,21.6146,110.2794,China,,
1156173813,Ximeicun,24.9633,118.3811,China,,
1156545200,Jianguang,28.1958,115.7833,China,,
1156817119,Yucheng,29.9888,103.0007,China,0,
1591672475,Panama City,8.9833,-79.5167,Panama,0,
1156046916,Xushan,30.1697,121.2665,China,0,
1076646823,Belém,-1.4558,-48.5039,Brazil,1,
1840003871,Virginia Beach,36.7335,-76.0435,United States,,
1156863840,Leizhou,20.9147,110.0806,China,0,
1410000087,Gwangju,35.1653,126.8486,South Korea,1,
1356562598,Nāsik,20,73.78,India,,
1076658221,Porto Alegre,-30.0331,-51.23,Brazil,1,
1862309871,Valencia,10.1667,-68,Venezuela,1,
1566593483,Onitsha,6.1667,6.7833,Nigeria,0,
1784176710,Abu Dhabi,24.4667,54.3667,United Arab Emirates,0,
1410993875,Daejeon,36.351,127.385,South Korea,1,
1484198680,Zapopan,20.7167,-103.4,Mexico,0,
1840033999,Bronx,40.8501,-73.8662,United States,,
1643582706,Yekaterinburg,56.8356,60.6128,Russia,1,
1156796734,Huazhou,32.6832,112.079,China,0,
1392622735,Kyōto,35.0117,135.7683,Japan,1,
1156547188,Jinhua,29.1046,119.6494,China,0,
1528355309,Amsterdam,52.3728,4.8936,Netherlands,0,
1156245904,Shuangyashan,46.6388,131.1545,China,0,
1156114238,Pizhou,34.3422,118.0097,China,,
1504846488,El Kelaa des Srarhna,32.0481,-7.4083,Morocco,,
1686604760,Dakar,14.6928,-17.4467,Senegal,0,
1804588111,Kharkiv,49.9925,36.2311,Ukraine,1,
1156203000,Yangshe,31.8775,120.5512,China,0,
1156817541,Guyuan,36.008,106.2782,China,,
1156993705,Rui’an,27.778,120.6526,China,,
1050667339,Khulna,22.8167,89.55,Bangladesh,1,
1512035506,Muscat,23.6139,58.5922,Oman,0,
1156052493,Wenling,28.3797,121.3718,China,,
1156785303,Gaozhou,21.9135,110.8481,China,0,
1356013205,Farīdābād,28.4167,77.3,India,,
1156131504,Chizhou,30.6583,117.4849,China,0,
1376401542,Tel Aviv-Yafo,32.08,34.78,Israel,1,
1496024767,Ulaanbaatar,47.9203,106.9172,Mongolia,0,
1076034054,Goiânia,-16.6667,-49.25,Brazil,1,
1156893569,Fuqing,25.7232,119.3735,China,0,
1792945815,Kayseri,38.7225,35.4875,Turkey,1,
1156139322,Wuzhong,37.9874,106.1919,China,0,
1688374696,Belgrade,44.82,20.46,Serbia,0,
1156157078,Pingdu,36.7833,119.9556,China,,
1380724377,Milan,45.4669,9.19,Italy,1,
1356840670,Aurangābād,19.88,75.32,India,,
1208763942,Copenhagen,55.6761,12.5683,Denmark,0,
1156157844,Yangquan,37.8576,113.5762,China,0,
1156592042,Yutan,28.3147,112.554,China,0,
1156527426,Huangshan,29.7132,118.3151,China,0,
1554435911,Auckland,-36.8406,174.74,New Zealand,1,
1360051337,Makassar,-5.1619,119.4362,Indonesia,1,
1214985348,Santiago,19.4572,-70.6889,Dominican Republic,1,
1840003046,Milwaukee,43.0642,-87.9675,United States,,
1356317190,Rājkot,22.3,70.7833,India,,
1203744823,Prague,50.0875,14.4214,Czechia,0,
1792169057,Samsun,41.2903,36.3336,Turkey,1,
1156366507,Liangshi,27.2578,111.7351,China,,
1170179113,Barranquilla,10.9833,-74.8019,Colombia,1,
1392017719,Saitama,35.8614,139.6456,Japan,1,
1076730420,Guarulhos,-23.4628,-46.5328,Brazil,,
1368714645,Al Başrah,30.515,47.81,Iraq,1,
1104468217,Mandalay,21.9831,96.0844,Myanmar,1,
1484840083,Juárez,31.7386,-106.487,Mexico,0,
1156761230,Xintai,35.91,117.78,China,,
1156264408,Wusong,30.9333,117.7667,China,0,
1356390476,Meerut,28.98,77.71,India,,
1156326773,Yushu,44.8249,126.5451,China,0,
1156122888,Rongcheng,26.2312,104.0966,China,,
1156282637,Huazhou,21.654,110.6294,China,,
1036538171,Adelaide,-34.9275,138.6,Australia,1,
1156960624,Baishan,41.9377,126.4179,China,0,
1156828380,Dayan,26.8808,100.2208,China,,
1156052713,Haicheng,40.8523,122.7474,China,0,
1434201852,Tripoli,32.8872,13.1914,Libya,0,
1156033234,Jiangyin,31.9087,120.2653,China,,
1156292419,Yicheng,31.3697,119.8239,China,0,
1156662372,Huaiyin,33.5819,119.028,China,,
1620356810,Porto,41.1621,-8.622,Portugal,1,
1024559448,Cacuaco,-8.8053,13.2444,Angola,,
1710627007,Soweto,-26.2678,27.8585,South Africa,,
1032770677,Rosario,-32.9575,-60.6394,Argentina,0,
1608697675,Canagatan,18,121.8,Philippines,,
1246177997,Helsinki,60.1708,24.9375,Finland,0,
1356115460,Jabalpur,23.1667,79.9333,India,,
1840003289,Providence,41.823,-71.4187,United States,1,
1156323529,Rucheng,32.3852,120.5634,China,0,
1643012126,Nizhniy Novgorod,56.3269,44.0075,Russia,1,
1364350188,Ahvāz,31.3203,48.6692,Iran,1,
1360703818,Jepara,-6.5333,110.6667,Indonesia,0,
1156668366,Shaoyang,32.9387,119.8404,China,0,
1340762485,Comayagüela,14.0981,-87.2097,Honduras,,
1156207332,Laiwu,36.1833,117.6667,China,,
1784152993,Sharjah,25.3575,55.3908,United Arab Emirates,1,
1356537020,Kalamboli,19.2333,73.1333,India,,
1156060544,Jingling,30.6667,113.1667,China,,
1643101260,Kazan,55.7964,49.1089,Russia,1,
1410679777,Suwon,37.2667,127.0167,South Korea,1,
1156841802,Yongcheng,33.9317,116.4459,China,,
1360564479,Sumedang,-6.84,107.9208,Indonesia,,
1124690423,Calgary,51.05,-114.0667,Canada,,
1704783472,Cần Thơ,10.0333,105.7833,Vietnam,1,
1156078044,Yiwu,29.3081,120.0698,China,0,
1360405604,Bagam,1.0833,104.0333,Indonesia,,
1156137209,Beidao,34.602,105.918,China,0,
1356707797,Vasai,19.47,72.8,India,,
1156328867,Xiangshui,26.5964,104.8314,China,,
1840015031,Jacksonville,30.3322,-81.6749,United States,,
1792536331,Akçaabat,41.0167,39.55,Turkey,0,
1076145766,Campinas,-22.9058,-47.0608,Brazil,,
1156901342,Dadukou,26.5849,101.7149,China,0,
1404512373,Mombasa,-4.05,39.6667,Kenya,1,
1156202191,Lingcheng,22.7,110.35,China,,
1356180206,Najafgarh,28.6092,76.9798,India,,
1076575691,Vila Velha,3.2167,-51.2167,Brazil,,
1050449249,Gāzipura,23.9889,90.375,Bangladesh,,
1643224011,Chelyabinsk,55.15,61.4,Russia,1,
1356145782,Vārānasi,25.3189,83.0128,India,,
1156138735,Xinyu,27.795,114.9242,China,0,
1364701633,Qom,34.64,50.8764,Iran,1,
1706832021,Hargeysa,9.5631,44.0675,Somalia,1,
1156180353,Zhangye,38.9355,100.4553,China,0,
1392373695,Hiroshima,34.3914,132.4519,Japan,1,
1566540296,Maiduguri,11.8333,13.15,Nigeria,1,
1764662886,Chiang Mai,18.7953,98.9986,Thailand,1,
1634459660,Doha,25.2867,51.5333,Qatar,0,
1508074843,Maputo,-25.9667,32.5833,Mozambique,0,
1180720887,Mbandaka,0.0478,18.2558,Congo (Kinshasa),1,
1686165071,Pikine,14.75,-17.4,Senegal,,
1682345785,Medina,24.47,39.61,Saudi Arabia,1,
1356442950,Srīnagar,34.09,74.79,India,1,
1643360863,Omsk,54.9667,73.3833,Russia,1,
1372595407,Dublin,53.35,-6.2603,Ireland,0,
1156249772,Liaoyuan,42.8976,125.1381,China,,
1360503809,Cilacap,-7.7167,109.017,Indonesia,0,
1156301061,Yingtan,28.2333,117,China,,
1360243491,Bandar Lampung,-5.45,105.2667,Indonesia,1,
1643205757,Samara,53.2028,50.1408,Russia,1,
1156249346,Guankou,28.1417,113.625,China,0,
1410134602,Ulsan,35.55,129.3167,South Korea,1,
1356103392,Dhanbād,23.7998,86.4305,India,,
1156656582,Dingzhou,38.5158,114.9845,China,,
1156490109,Lianyuan,27.6961,111.6659,China,0,
1156102432,Rongcheng,29.8239,112.9019,China,0,
1156441554,Kaiyuan,36.0656,113.8153,China,0,
1104838105,Nay Pyi Taw,19.7475,96.115,Myanmar,0,
1156504227,Zhuji,29.7169,120.2314,China,0,
1646923541,Kigali,-1.9536,30.0606,Rwanda,0,
1180475821,Bukavu,-2.5,28.8667,Congo (Kinshasa),1,
1156057789,Leiyang,26.4179,112.8457,China,0,
1120435460,Bafoussam,5.4667,10.4167,Cameroon,1,
1156757274,Yichun,47.7235,128.8893,China,0,
1566080151,Benin City,6.3333,5.6222,Nigeria,1,
1643013518,Rostov,47.2333,39.7,Russia,1,
1156216927,Xiantao,30.3833,113.4,China,,
1356926507,Amritsar,31.64,74.86,India,,
1604422141,Callao,-12.0333,-77.1333,Peru,1,
1840021383,Salt Lake City,40.7776,-111.9311,United States,1,
1356076391,Alīgarh,27.88,78.08,India,,
1566202131,Shagamu,6.8333,3.65,Nigeria,0,
1156748426,Yingchuan,34.1511,113.4733,China,0,
1484016661,Ciudad Nezahualcóyotl,19.4081,-99.0186,Mexico,,
1268203191,Tbilisi,41.7225,44.7925,Georgia,0,
1356593800,Guwāhāti,26.1722,91.7458,India,,
1643722928,Ufa,54.7261,55.9475,Russia,1,
1504861997,Fès,34.0433,-5.0033,Morocco,1,
1076819308,São Luís,-2.5283,-44.3044,Brazil,1,
1704863046,Biên Hòa,10.95,106.8167,Vietnam,1,
1724991838,Sevilla,37.24,-5.99,Spain,1,
1148708596,N’Djamena,12.11,15.05,Chad,0,
1484788702,Mexicali,32.6633,-115.4678,Mexico,1,
1484074285,Nezahualcóyotl,19.4006,-99.0148,Mexico,0,
1566683694,Ikare,7.5167,5.75,Nigeria,0,
1840036155,Nashville,36.1715,-86.7842,United States,1,
1288890688,Tamale,9.4075,-0.8533,Ghana,1,
1156960560,Xibeijie,39.737,98.5049,China,0,
1156221984,Yuyao,30.0372,121.1546,China,,
1356986516,Hāora,22.58,88.3294,India,,
1156149248,Hanchuan,30.652,113.8274,China,,
1156696810,Gongzhuling,43.5036,124.8088,China,0,
1643544975,Krasnoyarsk,56.0089,92.8719,Russia,1,
1276015998,Cologne,50.9364,6.9528,Germany,,
1108101689,Bujumbura,-3.3833,29.3667,Burundi,0,
1417191971,Bishkek,42.8747,74.6122,Kyrgyzstan,0,
1156522825,Zhufeng,36,119.4167,China,,
1076485783,São Gonçalo,-22.8269,-43.0539,Brazil,,
1051074169,Yerevan,40.1814,44.5144,Armenia,0,
1156414637,Ezhou,30.3972,114.8842,China,0,
1398516045,Nur-Sultan,51.1472,71.4222,Kazakhstan,0,
1410160862,Tongjin,37.2333,127.2,South Korea,,
1478414984,Nouakchott,18.0858,-15.9785,Mauritania,0,
1156080077,Xiashi,30.5333,120.6833,China,0,
1356110588,Rānchi,23.36,85.33,India,1,
1156331200,Taixing,32.1724,120.0142,China,0,
1710271883,Vereeniging,-26.6736,27.9319,South Africa,,
1356363967,Gwalior,26.2215,78.178,India,,
1156956616,Zhongwei,37.5139,105.1884,China,0,
1410511255,Goyang,37.65,126.8,South Korea,0,
1578324706,Oslo,59.9133,10.7389,Norway,0,
1356807575,Vijayavāda,16.5193,80.6305,India,,
1356739179,Chandīgarh,30.75,76.78,India,1,
1124290735,Edmonton,53.5344,-113.4903,Canada,1,
1392457903,Sendai,38.2682,140.8694,Japan,1,
1840014497,Raleigh,35.8324,-78.6429,United States,1,
1156935002,Mizhou,35.99,119.3801,China,0,
1788742103,Tunis,36.8064,10.1817,Tunisia,0,
1156155575,Xishan,27.6609,113.4946,China,0,
1862860739,Barquisimeto,10.0678,-69.3467,Venezuela,1,
1156541759,Hegang,47.3139,130.2775,China,0,
1643811064,Voronezh,51.6717,39.2106,Russia,1,
1643294442,Perm,58.0139,56.2489,Russia,1,
1410592618,Changwon,35.2708,128.6631,South Korea,1,
1156532454,Fangchenggang,21.6,108.3,China,0,
1156787809,Shouguang,36.8833,118.7333,China,,
1360771925,Bogor,-6.5966,106.7972,Indonesia,,
1170886102,Cartagena,10.4,-75.5,Colombia,1,
1508768577,Matola,-25.9667,32.4667,Mozambique,,
1356727084,Jodhpur,26.28,73.02,India,,
1840015457,Memphis,35.1087,-89.9663,United States,,
1566373448,Ogbomoso,8.1333,4.25,Nigeria,0,
1050032005,Rangapukur,25.56,89.25,Bangladesh,,
1558296252,Managua,12.1544,-86.2738,Nicaragua,0,
1156373900,Sanya,18.2533,109.5036,China,0,
1398791401,Shymkent,42.3167,69.5958,Kazakhstan,1,
1156182309,Wutong,30.6326,120.5474,China,0,
1562932886,Niamey,13.515,2.1175,Niger,0,
1818909612,Shubrā al Khaymah,30.1286,31.2422,Egypt,,
1156451663,Linhai,28.8523,121.1409,China,,
1792161179,Denizli,37.7667,29.0833,Turkey,1,
1076440479,Maceió,-9.6658,-35.735,Brazil,1,
1430477826,Monrovia,6.3133,-10.8014,Liberia,0,
1156476417,Wafangdian,39.6271,121.9972,China,,
1156631720,Zhongxiang,31.169,112.5853,China,,
1840030815,Louisville,38.1663,-85.6485,United States,,
1804178102,Odesa,46.4775,30.7326,Ukraine,1,
1704361621,Thủ Đức,10.8266,106.7609,Vietnam,0,
1643577201,Volgograd,48.7086,44.5147,Russia,1,
1586306717,Islamabad,33.6931,73.0639,Pakistan,0,
1332401940,Port-au-Prince,18.5333,-72.3333,Haiti,0,
1156936644,Xinyi,22.3559,110.9369,China,,
1356374983,Raipur,21.25,81.63,India,1,
1604723954,Arequipa,-16.4,-71.5333,Peru,1,
1840001698,Richmond,37.5295,-77.4756,United States,1,
1156197076,Zaoyang,32.1287,112.7581,China,,
1840000386,Buffalo,42.9018,-78.8487,United States,,
1156462734,Shuizhai,33.4433,114.8994,China,,
1156255316,Xingyi,25.091,104.9011,China,,
1356820310,Kota,25.18,75.83,India,,
1586556108,Quetta,30.1833,67,Pakistan,1,
1524589448,Kathmandu,27.7172,85.324,Nepal,0,
1124399363,Ottawa,45.4247,-75.695,Canada,0,
1454688499,Lilongwe,-13.9833,33.7833,Malawi,0,
1232791236,Asmara,15.3228,38.925,Eritrea,0,
1694085071,Freetown,8.4844,-13.2344,Sierra Leone,0,
1418732714,Vientiane,17.9667,102.6,Laos,0,
1376261644,Jerusalem,31.7784,35.2066,Israel,0,
1428586192,Riga,56.9489,24.1064,Latvia,0,
1140080881,Bangui,4.3733,18.5628,Central African Republic,0,
1762930616,Dushanbe,38.5367,68.78,Tajikistan,0,
1768409132,Lomé,6.1319,1.2228,Togo,0,
1795049992,Ashgabat,37.95,58.3833,Turkmenistan,0,
1191233290,Zagreb,45.8167,15.9833,Croatia,0,
1266952885,Libreville,0.3903,9.4542,Gabon,0,
1204955174,Cotonou,6.3667,2.4333,Benin,0,
1710176249,Pretoria,-25.7461,28.1881,South Africa,0,
1440887149,Vilnius,54.6872,25.28,Lithuania,0,
1124224963,Winnipeg,49.8844,-97.1464,Canada,1,
1124823933,Quebec City,46.8139,-71.2081,Canada,1,
1498011437,Chisinau,47.0228,28.8353,Moldova,0,
1598685395,Port Moresby,-9.4789,147.1494,Papua New Guinea,0,
1807600615,Skopje,41.9961,21.4317,Macedonia,0,
1262028958,Djibouti,11.5883,43.145,Djibouti,0,
1916116052,Gaza,31.5069,34.456,Gaza Strip,0,
1388709177,Kingston,17.9714,-76.7931,Jamaica,0,
1504023252,Rabat,34.0209,-6.8416,Morocco,0,
1222647454,San Salvador,13.6989,-89.1914,El Salvador,0,
1528799905,The Hague,52.08,4.31,Netherlands,0,
1600057911,Asunción,-25.3,-57.6333,Paraguay,0,
1728444337,Juba,4.85,31.6,South Sudan,0,
1426977668,Maseru,-29.31,27.48,Lesotho,0,
1624168850,Bissau,11.85,-15.5667,Guinea-Bissau,0,
1470574399,Valletta,35.8983,14.5125,Malta,0,
1703195001,Bratislava,48.1439,17.1097,Slovakia,0,
1124158530,Kitchener,43.4186,-80.4728,Canada,,
1048989486,Manama,26.225,50.5775,Bahrain,0,
1233260021,Tallinn,59.4372,24.7453,Estonia,0,
1422847713,Beirut,33.8869,35.5131,Lebanon,0,
1710680650,Cape Town,-33.9253,18.4239,South Africa,0,
1008162156,Tirana,41.3289,19.8178,Albania,0,
1070966777,Sarajevo,43.8564,18.4131,Bosnia and Herzegovina,0,
1554772152,Wellington,-41.2889,174.7772,New Zealand,0,
1270723713,Banjul,13.4531,-16.5775,The Gambia,0,
1124130981,Halifax,44.6475,-63.5906,Canada,1,
1036142029,Canberra,-35.2931,149.1269,Australia,0,
1384683557,Yamoussoukro,6.8161,-5.2742,Côte d'Ivoire,0,
1124147219,Victoria,48.4283,-123.3647,Canada,1,
1196944155,Nicosia,35.1725,33.365,Cyprus,0,
1516802003,Windhoek,-22.57,17.0836,Namibia,0,
1638024662,Saint-Denis,-20.8789,55.4481,Reunion,0,
1204172060,Porto-Novo,6.4972,2.605,Benin,0,
1068823873,Sucre,-19.0475,-65.26,Bolivia,0,
1705917455,Ljubljana,46.0514,14.5061,Slovenia,0,
1044318561,Nassau,25.0781,-77.3386,The Bahamas,0,
1710495933,Bloemfontein,-29.1167,26.2167,South Africa,0,
1474969110,Fort-de-France,14.6,-61.0667,Martinique,0,
1356215164,New Delhi,28.6139,77.209,India,0,
1072756768,Gaborone,-24.6581,25.9122,Botswana,0,
1740518660,Paramaribo,5.8522,-55.2039,Suriname,0,
1626308942,Dili,-8.5536,125.5783,Timor-Leste,0,
1834288497,Dodoma,-6.1731,35.7419,Tanzania,0,
1328160906,Georgetown,6.8058,-58.1508,Guyana,0,
1292385245,Gibraltar,36.1333,-5.35,Gibraltar,0,
1226861333,Malabo,3.75,8.7833,Equatorial Guinea,0,
1242615095,Suva,-18.1416,178.4419,Fiji,0,
1540958092,Nouméa,-22.2758,166.458,New Caledonia,0,
1901760068,Pristina,42.6633,21.1622,Kosovo,0,
1462441685,Male,4.1753,73.5089,Maldives,0,
1480131261,Port Louis,-20.1644,57.5042,Mauritius,0,
1499454516,Podgorica,42.4413,19.2629,Montenegro,0,
1531000000,Willemstad,12.108,-68.935,Curaçao,0,
1756374318,Bern,46.9481,7.4475,Switzerland,0,
1108778000,Gitega,-3.4283,29.925,Burundi,0,
1352327190,Reykjavík,64.1467,-21.94,Iceland,0,
1442262731,Luxembourg,49.6117,6.1319,Luxembourg,0,
1258907380,Papeete,-17.5334,-149.5667,French Polynesia,0,
1132398770,Praia,14.918,-23.509,Cabo Verde,0,
1144239330,Sri Jayewardenepura Kotte,6.9108,79.8878,Sri Lanka,0,
1052274244,Bridgetown,13.0975,-59.6167,Barbados,0,
1174793581,Moroni,-11.699,43.256,Comoros,0,
1064010361,Thimphu,27.4722,89.6361,Bhutan,0,
1748811945,Mbabane,-26.3208,31.1617,Swaziland,0,
1090737486,Honiara,-9.4319,159.9556,Solomon Islands,0,
1780670676,Port of Spain,10.6667,-61.5167,Trinidad and Tobago,0,
1662922505,Castries,14.0167,-60.9833,Saint Lucia,0,
1458000206,Putrajaya,2.93,101.69,Malaysia,0,
1254304969,Cayenne,4.933,-52.33,French Guiana,0,
1678301324,São Tomé,0.3361,6.7306,Sao Tome and Principe,0,
1548805075,Port-Vila,-17.7333,168.3167,Vanuatu,0,
1096465895,Bandar Seri Begawan,4.8903,114.9422,Brunei,0,
1492854256,Monaco,43.7333,7.4167,Monaco,0,
1882489296,Apia,-13.8333,-171.75,Samoa,0,
1296152641,Tarawa,1.3382,173.0176,Kiribati,0,
1533513057,Oranjestad,12.5186,-70.0358,Aruba,0,
1832490253,Saint Helier,49.1858,-2.11,Jersey,0,
1175099654,Mamoudzou,-12.7794,45.2272,Mayotte,0,
1584000000,Majuro,7.0833,171.3833,Marshall Islands,0,
1833688345,Douglas,54.145,-4.482,Isle Of Man,0,
1136159124,George Town,19.2866,-81.3744,Cayman Islands,0,
1690193579,Victoria,-4.6167,55.45,Seychelles,0,
1670376659,Kingstown,13.1578,-61.225,Saint Vincent and the Grenadines,0,
1020828846,Andorra la Vella,42.5,1.5,Andorra,0,
1028912067,Saint John’s,17.1167,-61.85,Antigua and Barbuda,0,
1776737461,Nuku‘alofa,-21.1333,-175.2,Tonga,0,
1304028354,Nuuk,64.1814,-51.6942,Greenland,0,
1084586375,Belmopan,17.2514,-88.7669,Belize,0,
1212060440,Roseau,15.3014,-61.3883,Dominica,0,
1659198919,Basseterre,17.3,-62.7333,Saint Kitts and Nevis,0,
1234904517,Tórshavn,62,-6.7833,Faroe Islands,0,
1092732412,Road Town,18.4167,-64.6167,British Virgin Islands,0,
1016976740,Pago Pago,-14.274,-170.7046,American Samoa,0,
1796965313,Grand Turk,21.4664,-71.136,Turks and Caicos Islands,0,
1663133172,Marigot,18.0706,-63.0847,Saint Martin,0,
1583008885,Palikir,6.9178,158.185,Federated States of Micronesia,0,
1798251391,Funafuti,-8.5167,179.2,Tuvalu,0,
1438317747,Vaduz,47.141,9.521,Liechtenstein,0,
1748963140,Lobamba,-26.4465,31.2064,Swaziland,0,
1184217570,Avarua,-21.207,-159.771,Cook Islands,0,
1308891766,Saint George’s,12.05,-61.75,Grenada,0,
1674741947,San Marino,43.9346,12.4473,San Marino,0,
1504999990,Tifariti,26.158,-10.567,Morocco,0,
1534859858,Philipsburg,18.0237,-63.0458,Sint Maarten,0,
1580556972,Capitol Hill,15.2137,145.7546,Northern Mariana Islands,0,
1238780509,Stanley,-51.7,-57.85,Falkland Islands (Islas Malvinas),0,
1060000000,Hamilton,32.2942,-64.7839,Bermuda,0,
1336000000,Vatican City,41.904,12.453,Vatican City,0,
1570882835,Alofi,-19.056,-169.921,Niue,0,
1312938008,Basse-Terre,16.0104,-61.7055,Guadeloupe,0,
1316937540,Hagåtña,13.4745,144.7504,Guam,0,
1654761576,Jamestown,-15.9251,-5.7179,"Saint Helena, Ascension, and Tristan da Cunha",0,
1500971198,Brades,16.7928,-62.2106,Montserrat,0,
1520790128,Yaren,-0.5477,166.9209,Nauru,0,
1652681565,Gustavia,17.8958,-62.8508,Saint Barthelemy,0,
1585525081,Ngerulmud,7.5006,134.6242,Palau,0,
1666340272,Saint-Pierre,46.7811,-56.1764,Saint Pierre and Miquelon,0,
1660698387,The Valley,18.2167,-63.05,Anguilla,0,
1876784844,Mata-Utu,-13.2825,-176.1736,Wallis and Futuna,0,
1574121434,Kingston,-29.0569,167.9617,Norfolk Island,0,
1930654114,Longyearbyen,78.2167,15.6333,Svalbard,0,
1612000000,Adamstown,-25.0667,-130.0833,Pitcairn Islands,0,
1162889600,Flying Fish Cove,-10.4167,105.7167,Christmas Island,0,
1239048838,King Edward Point,-54.2833,-36.5,South Georgia And South Sandwich Islands,0,
1356698199,Bareilly,28.364,79.415,India,,
1704966442,Quảng Hà,15.9333,108.2667,Vietnam,,
1288459533,Domaa-Ahenkro,7.2833,-2.8833,Ghana,,
1840020428,Oklahoma City,35.4676,-97.5136,United States,1,
1156913008,Xingcheng,24.1681,115.6669,China,0,
1156536785,Dongtai,32.8534,120.3037,China,0,
1156012356,Yingcheng,24.1878,113.4042,China,0,
1392107144,Chiba,35.6073,140.1064,Japan,1,
1729768355,Al Mijlad,11.0339,27.74,Sudan,,
1360422679,Pekanbaru,0.5092,101.4453,Indonesia,1,
1156138895,Luocheng,22.7645,111.5745,China,0,
1804152933,Dnipro,48.4675,35.04,Ukraine,1,
1156578273,Danyang,31.9948,119.575,China,,
1231128743,Godē,5.9527,43.5516,Ethiopia,,
1076336975,Natal,-6.9838,-60.2699,Brazil,,
1156911678,Nada,19.5,109.5833,China,0,
1608189351,Zamboanga City,6.9042,122.0761,Philippines,1,
1368344172,Kirkuk,35.4667,44.3167,Iraq,1,
1840004836,Bridgeport,41.1918,-73.1954,United States,,
1380646673,Naples,40.8333,14.25,Italy,1,
1156198103,Wuchuan,21.4283,110.7749,China,,
1156485081,Huilong,31.8131,121.6574,China,0,
1484669072,Morelia,19.7683,-101.1894,Mexico,,
1724397372,Málaga,36.7194,-4.42,Spain,0,
1608136151,Cebu City,10.32,123.75,Philippines,1,
1818255319,Al Manşūrah,31.05,31.3833,Egypt,1,
1356999503,Coimbatore,11.0168,76.9558,India,,
1214664832,Santo Domingo Este,18.4855,-69.8734,Dominican Republic,1,
1392792380,Setagaya,35.6466,139.6532,Japan,,
1410622472,Sŏngnam,37.4333,127.15,South Korea,,
1156105450,Taishan,22.2486,112.785,China,,
1076727667,Teresina,-5.0949,-42.8042,Brazil,1,
1356314385,Solāpur,17.68,75.92,India,,
1504861504,Tangier,35.7767,-5.8039,Morocco,1,
1364535690,Kermānshāh,34.3142,47.065,Iran,1,
1643438227,Krasnodar,45.0333,38.9667,Russia,1,
1706563100,Baidoa,3.1167,43.65,Somalia,1,
1706067930,Gaalkacyo,6.7697,47.4308,Somalia,1,
1156592047,Anqiu,36.3619,119.1072,China,,
1156303834,Feicheng,36.186,116.772,China,,
1458417183,Seberang Jaya,5.4,100.4667,Malaysia,,
1068007058,El Alto,-16.5047,-68.1633,Bolivia,,
1392003140,Kitakyūshū,33.8833,130.8833,Japan,,
1156023073,Meishan,34.1736,112.839,China,0,
1729318628,Khartoum North,15.6333,32.6333,Sudan,,
1180478201,Kisangani,0.5153,25.1911,Congo (Kinshasa),1,
1484666646,Aguascalientes,21.876,-102.296,Mexico,1,
1504172585,Marrakech,31.63,-8.0089,Morocco,1,
1804963805,Donetsk,48.0028,37.8053,Ukraine,1,
1604613706,Trujillo,-8.112,-79.0288,Peru,1,
1840001839,New Orleans,30.0687,-89.9288,United States,,
1156281983,Taihe,30.8706,105.3784,China,0,
1356884472,Trichinopoly,10.7903,78.7047,India,,
1156236053,Xin’an,34.3662,118.3369,China,,
1156875484,Taihecun,45.768,131.0063,China,0,
1156113193,Kashgar,39.4681,75.9938,China,0,
1484850125,Naucalpan de Juárez,19.4753,-99.2378,Mexico,0,
1792458894,Çankaya,39.9244,32.8856,Turkey,0,
1192766111,Santiago de Cuba,20.0217,-75.8294,Cuba,1,
1566679132,Owerri,5.4833,7.0333,Nigeria,1,
1360900986,Padang,-0.95,100.3531,Indonesia,1,
1156874864,Qingzhou,36.6967,118.4797,China,,
1156302762,Lichuan,30.2965,108.9378,China,,
1032492280,Santiago del Estero,-27.7833,-64.2667,Argentina,1,
1156255811,Daye,30.1003,114.9699,China,,
1156041202,Hengzhou,22.6896,109.2674,China,0,
1840020696,Fort Worth,32.7817,-97.3474,United States,,
1840004773,Hartford,41.7661,-72.6834,United States,1,
1792759121,Esenyurt,41.047,28.658,Turkey,,
1076660445,Campo Grande,-20.4839,-54.615,Brazil,1,
1156410076,Zhuanghe,39.6896,122.9664,China,,
1854348796,Bobo-Dioulasso,11.1833,-4.2833,Burkina Faso,1,
1682452296,Ad Dammām,26.4333,50.1,Saudi Arabia,1,
1156180376,Quzhou,28.9545,118.8763,China,,
1156369972,Lhasa,29.6534,91.1719,China,1,
1156752602,Jiaozhou,36.2481,119.9625,China,,
1180006418,Bunia,1.5667,30.25,Congo (Kinshasa),1,
1608766695,Taguig City,14.52,121.05,Philippines,1,
1484010310,Cancún,21.1606,-86.8475,Mexico,0,
1484396779,Mérida,20.97,-89.62,Mexico,1,
1156787307,Yangchun,22.1717,111.7846,China,,
1156202014,Dengtalu,36.1386,114.1066,China,0,
1356269375,Morādābād,28.8389,78.7769,India,,
1608824345,Antipolo,14.5842,121.1763,Philippines,1,
1566979497,Abeokuta,7.1608,3.3483,Nigeria,1,
1410428222,Bucheon,37.5,126.7833,South Korea,0,
1156200283,Zhoushan,29.9887,122.2049,China,0,
1356539761,Tiruppūr,11.1085,77.3411,India,,
1076697777,Natal,-5.7833,-35.2,Brazil,1,
1484335603,Chihuahua,28.6353,-106.0889,Mexico,1,
1458509635,Klang,3.0333,101.45,Malaysia,,
1368735317,As Sulaymānīyah,35.5572,45.4356,Iraq,1,
1356836043,Gurgaon,28.456,77.029,India,,
1380244627,Turin,45.0792,7.6761,Italy,1,
1840022101,Tucson,32.1541,-110.8787,United States,,
1156332302,Hai’an,32.532,120.4604,China,0,
1368838855,Ar Ramādī,33.4258,43.2992,Iraq,1,
1156207330,Laiyang,36.9758,120.7136,China,,
1504989034,Sale,34.0333,-6.8,Morocco,,
1356494816,Jalandhar,31.2569,75.4432,India,,
1250774071,Marseille,43.2964,5.37,France,1,
1170940590,Bucaramanga,7.1333,-73,Colombia,1,
1156686574,Kaifeng Chengguanzhen,34.8519,114.3481,China,0,
1566486388,Ikeja,6.6186,3.3426,Nigeria,1,
1792933981,Eskişehir,39.7767,30.5206,Turkey,1,
1484107245,Saltillo,25.4231,-100.9919,Mexico,1,
1156673331,Gaomi,36.3833,119.75,China,,
1826558678,Liverpool,53.4075,-2.9919,United Kingdom,,
1458423505,Ipoh,4.5972,101.075,Malaysia,1,
1012126319,Oran,35.6969,-0.6331,Algeria,1,
1826964096,Portsmouth,50.8058,-1.0872,United Kingdom,,
1826602892,Southampton,50.9025,-1.4042,United Kingdom,,
1484015319,Hermosillo,29.0989,-110.9542,Mexico,1,
1068793894,Cochabamba,-17.3833,-66.1667,Bolivia,1,
1156194600,Weichanglu,37.1792,119.9333,China,0,
1156278934,Shache,38.4261,77.25,China,,
1156698595,Wuxi,26.5895,111.8481,China,0,
1156705082,Leping,28.9632,117.1203,China,0,
1156804488,Hailun,47.4585,126.9632,China,0,
1156949639,Macheng,31.1817,115.0189,China,,
1566568277,Akure,7.25,5.195,Nigeria,1,
1566480168,Ilorin,8.5,4.55,Nigeria,1,
1156177817,Yuci,37.6823,112.7281,China,,
1643556540,Saratov,51.5333,46.0167,Russia,1,
1368578192,Erbil,36.1912,44.0092,Iraq,1,
1076339714,Iguaçu,-22.74,-43.47,Brazil,,
1608278212,Pasig City,14.575,121.0833,Philippines,1,
1156898134,Dehui,44.5333,125.7,China,,
1356264482,Kālkāji Devi,28.5485,77.2513,India,,
1356140143,Bhubaneshwar,20.27,85.84,India,1,
1840013305,Honolulu,21.3294,-157.846,United States,1,
1156849608,Tongchuan,34.9057,108.9422,China,0,
1410964361,Cheongju,36.6333,127.4833,South Korea,1,
1156254788,Chengxiang,31.4515,121.1043,China,0,
1300397999,Thessaloníki,40.6403,22.9347,Greece,1,
1566325734,Warri,5.5167,5.75,Nigeria,0,
1392003291,Sakai,34.5733,135.4831,Japan,,
1178411563,Pointe-Noire,-4.8,11.85,Congo (Brazzaville),1,
1156795164,Rongjiawan,29.1409,113.1087,China,0,
1504371270,Mediouna,33.45,-7.51,Morocco,,
1458469233,Butterworth,5.3992,100.3639,Malaysia,,
1156943939,Renqiu,38.7094,116.1008,China,,
1156263165,Xindi,29.8182,113.4653,China,,
1356019118,Bhayandar,19.29,72.85,India,,
1156729960,Wu’an,36.6941,114.1847,China,,
1076793227,São Bernardo do Campo,-23.7,-46.55,Brazil,,
1356843310,Māndvi,19.3,72.85,India,,
1862647790,Barinas,8.6333,-70.2,Venezuela,1,
1156086381,Zijinglu,34.7513,112.9854,China,0,
1156235854,Gaoyou,32.7847,119.4432,China,0,
1484516810,Culiacán,24.8069,-107.3939,Mexico,1,
1156405731,Hejian,38.4451,116.0897,China,,
1156142520,Yiyang,26.4103,112.3913,China,0,
1156046618,Puxi,35.2125,114.735,China,0,
1450017816,Androtsy,-24.1,46.3,Madagascar,,
1840021024,McAllen,26.2252,-98.2467,United States,,
1156033855,Qingping,34.538,113.3796,China,0,
1840009315,Omaha,41.2627,-96.0529,United States,,
1076922014,João Pessoa,-7.12,-34.88,Brazil,1,
1156259752,Dongyang,29.2785,120.2282,China,0,
1484604775,Querétaro,20.5875,-100.3928,Mexico,1,
1616172264,Kraków,50.0614,19.9372,Poland,1,
1458236750,George Town,5.4144,100.3292,Malaysia,1,
1076413528,Abaeté,-19.1583,-45.4522,Brazil,,
1170614290,Palermo,2.8917,-75.4375,Colombia,0,
1724981666,Valencia,39.47,-0.3764,Spain,1,
1156107208,Xigazê,29.25,88.8833,China,0,
1840023252,El Paso,31.8476,-106.43,United States,,
1792655353,Seyhan,36.9831,35.3328,Turkey,0,
1392913753,Niigata,37.9161,139.0364,Japan,1,
1840005293,Hempstead,40.6629,-73.6089,United States,,
1826343963,Leeds,53.8003,-1.5497,United Kingdom,,
1392174500,Hamamatsu,34.7108,137.7275,Japan,,
1792374908,Bağcılar,41.0344,28.8564,Turkey,,
1156524101,Xiangxiang,27.7389,112.5223,China,,
1724331267,Bilbao,43.2569,-2.9236,Spain,0,
1156671495,Chaohucun,31.6783,117.7353,China,,
1156340393,Fuyang,30.0553,119.95,China,0,
1760013934,Homs,34.7333,36.7167,Syria,1,
1792992349,Küçükçekmece,41,28.8,Turkey,0,
1024669127,Lubango,-14.9167,13.5,Angola,1,
1156817518,Zouping,36.8625,117.7424,China,,
1762372787,Khŭjand,40.2833,69.6333,Tajikistan,1,
1484583620,San Luis Potosí,22.1511,-100.9761,Mexico,1,
1826122597,Nottingham,52.9533,-1.15,United Kingdom,,
1156000460,Cencheng,22.9297,111.0186,China,0,
1156840276,Dali,25.6808,100.3003,China,,
1408482040,Hamhŭng,39.9167,127.5333,North Korea,1,
1156965620,Korla,41.7259,86.1746,China,0,
1050547831,Rājshāhi,24.3667,88.6,Bangladesh,1,
1792511957,Erzurum,39.9086,41.2769,Turkey,1,
1276054552,Frankfurt,50.1106,8.6822,Germany,0,
1784674685,Al ‘Ayn,24.2075,55.7447,United Arab Emirates,,
1156837705,Songzi,30.1772,111.7732,China,,
1840019176,Albuquerque,35.1054,-106.6465,United States,,
1356458416,Patiāla,30.34,76.38,India,,
1156973102,Laixi,36.8667,120.5333,China,,
1586038700,Bahawalpur,29.3956,71.6836,Pakistan,0,
1156515985,Zhongba,31.7761,104.7406,China,0,
1566368729,Kaduna,10.5167,7.4333,Nigeria,1,
1156689964,Qingnian,36.8494,115.7061,China,0,
1340568412,San Pedro Sula,15.5,-88.0333,Honduras,1,
1156277802,Qamdo,31.1375,97.1777,China,0,
1156544851,Xinhualu,34.3962,113.7249,China,0,
1392093402,Nerima,35.7355,139.6517,Japan,,
1156267419,Guangshui,31.6189,113.8229,China,,
1710690280,Pietermaritzburg,-29.6167,30.3833,South Africa,1,
1706822684,Baardheere,2.3333,42.2833,Somalia,,
1484017493,Tlajomulco de Zúñiga,20.4736,-103.4431,Mexico,0,
1360684979,Samarinda,-0.5,117.1378,Indonesia,1,
1158439005,Changhua,24.0667,120.5333,Taiwan,1,
1156450911,Sizhan,39.0099,106.3694,China,,
1862889027,Ciudad Guayana,8.3667,-62.65,Venezuela,0,
1170743755,Cúcuta,7.8942,-72.5039,Colombia,1,
1356224695,Dhūlia,20.8997,74.7697,India,,
1706322754,Burco,9.5279,45.5345,Somalia,1,
1156933354,Licheng,31.4174,119.4786,China,0,
1392003511,Ōta-ku,35.5613,139.716,Japan,,
1356024354,Thiruvananthapuram,8.4875,76.9525,India,1,
1643040435,Tyumen,57.15,65.5333,Russia,1,
1508958445,Nampula,-15.1167,39.2667,Mozambique,1,
1804644752,Zaporizhzhia,47.85,35.1175,Ukraine,1,
1104814217,Kyaukse,21.6131,96.1303,Myanmar,,
1156866870,Chengguan,35.5256,113.6976,China,0,
1392106283,Kumamoto,32.8031,130.7078,Japan,1,
1156609562,Nehe,48.48,124.8738,China,0,
1566395088,Osogbo,7.7667,4.5667,Nigeria,1,
1024474012,Cabinda,-5.56,12.19,Angola,1,
1364554896,Kermān,30.2833,57.0833,Iran,1,
1156756935,Zunhua,40.1881,117.9593,China,0,
1840000373,Rochester,43.168,-77.6162,United States,,
1608492120,Valenzuela,14.7,120.98,Philippines,1,
1364158221,Orūmīyeh,37.5486,45.0675,Iran,1,
1156089788,Wugang,26.7345,110.6293,China,,
1156968311,Shuangqiao,35.0833,112.5833,China,0,
1180581239,Tshikapa,-6.4167,20.8,Congo (Kinshasa),,
1076783887,São José dos Campos,-23.1789,-45.8869,Brazil,,
1032042035,Comodoro Rivadavia,-45.8647,-67.4808,Argentina,0,
1608831546,Cagayan de Oro,8.4833,124.65,Philippines,1,
1608204201,Tondo,14.617,120.967,Philippines,,
1156930148,Langzhong,31.5504,105.9938,China,0,
1156315498,Qian’an,40.0059,118.6973,China,,
1804939658,Lviv,49.8425,24.0322,Ukraine,1,
1840015988,Sarasota,27.3387,-82.5432,United States,,
1484737671,Reynosa,26.0922,-98.2778,Mexico,0,
1076625886,Santo André,-23.6572,-46.5333,Brazil,,
1368003357,An Najaf,32,44.33,Iraq,1,
1392967248,Sagamihara,35.5667,139.3667,Japan,,
1156383681,Guli,28.9008,120.0284,China,,
1124112672,Mississauga,43.6,-79.65,Canada,,
1152838958,Concepción,-36.8282,-73.0514,Chile,1,
1392954750,Okayama,34.65,133.9167,Japan,1,
1156406202,Anlu,31.2575,113.6783,China,0,
1834011288,Mwanza,-2.5167,32.9,Tanzania,1,
1840020319,Fresno,36.783,-119.7939,United States,,
1156011120,Changsha,22.3762,112.6877,China,0,
1484215762,Torreón,25.5394,-103.4486,Mexico,0,
1156232270,Shihezi,44.3054,86.0804,China,0,
1566212729,Enugu,6.4528,7.5111,Nigeria,1,
1076000699,Jaboatão,-8.1803,-35.0014,Brazil,,
1840021672,Tulsa,36.1283,-95.9042,United States,,
1410188674,Yanggok,37.6333,127.2167,South Korea,,
1156009046,Yatou,37.1653,122.4867,China,0,
1392135698,Edogawa,35.7066,139.8683,Japan,,
1840001044,Allentown,40.5961,-75.4756,United States,,
1076524478,Ribeirão Prêto,-21.1783,-47.8067,Brazil,,
1156116456,Xichang,27.8983,102.2706,China,0,
1760555544,Latakia,35.5167,35.7833,Syria,1,
1356763571,Bhiwandi,19.2967,73.0631,India,,
1608379532,City of Parañaque,14.47,121.02,Philippines,1,
1608418544,Dasmariñas,14.3294,120.9367,Philippines,,
1840034249,Dayton,39.7805,-84.2003,United States,,
1356139858,Sahāranpur,29.964,77.546,India,,
1356851618,Warangal,17.9689,79.5941,India,,
1170765625,Soledad,10.9167,-74.75,Colombia,0,
1076786452,Osasco,-23.5328,-46.7919,Brazil,,
1156141962,Dashiqiao,40.6328,122.5021,China,0,
1840006507,Birmingham,33.5279,-86.7971,United States,,
1408358410,Nampo,38.7333,125.4,North Korea,,
1356724691,Shiliguri,26.71,88.43,India,,
1360685223,Banjarmasin,-3.32,114.5925,Indonesia,1,
1344745541,Sha Tin,22.3802,114.1898,Hong Kong,,
1356567087,Salem,11.65,78.15,India,,
1608171585,General Santos,6.1167,125.1667,Philippines,1,
1384351512,Cocody,5.35,-3.9667,Côte d'Ivoire,,
1760197502,Ḩamāh,35.1333,36.75,Syria,1,
1792824929,Pendik,40.8747,29.235,Turkey,0,
1608869358,Bacoor,14.4624,120.9645,Philippines,,
1356977661,Vellore,12.9165,79.1325,India,,
1156077046,Shishi,24.7355,118.6434,China,0,
1484002410,Guadalupe,25.6775,-100.2597,Mexico,0,
1392464568,Adachi,35.7749,139.8044,Japan,,
1156919716,Qianxi,27.0284,106.0327,China,,
1643256295,Tolyatti,53.5089,49.4222,Russia,,
1446227359,Macau,22.2006,113.5461,Macau,,
1566483284,Bauchi,10.3158,9.8442,Nigeria,1,
1124567288,Hamilton,43.2567,-79.8692,Canada,,
1616832750,Łódź,51.7769,19.4547,Poland,1,
1156690651,Miluo Chengguanzhen,28.8049,113.0745,China,0,
1156145272,Gaizhou,40.4019,122.3499,China,0,
1368597794,Karbalā’,32.6167,44.0333,Iraq,1,
1156044041,Leling,37.7333,117.2167,China,0,
1156444449,Jianshe,34.2189,113.7693,China,0,
1392235505,Shizuoka,34.9756,138.3828,Japan,1,
1840015163,Charleston,32.8168,-79.9687,United States,,
1156033208,Jingcheng,32.0058,120.2547,China,0,
1356707865,Kochi,9.97,76.28,India,,
1032456103,Mar del Plata,-38,-57.55,Argentina,0,
1840015130,Cape Coral,26.6443,-81.9957,United States,,
1360027771,Tasikmalaya,-7.3161,108.1975,Indonesia,,
1364630382,Rasht,37.2808,49.5831,Iran,1,
1156368551,Xinmin,41.9952,122.8224,China,,
1156029691,Shanhu,29.5908,120.8176,China,0,
1156658422,Zhongshu,27.8116,106.4133,China,,
1356190221,Gorakhpur,26.7637,83.4039,India,,
1724907391,Zaragoza,41.65,-0.8833,Spain,1,
1616108520,Wrocław,51.11,17.0325,Poland,1,
1484463183,Acapulco de Juárez,16.8636,-99.8825,Mexico,0,
1364891653,Bahār,34.9072,48.4414,Iran,0,
1156131545,Kumul,42.8193,93.5151,China,0,
1724107739,Murcia,37.9861,-1.1303,Spain,1,
1156720536,Pinghu,30.7005,121.0104,China,,
1380428434,Palermo,38.1157,13.3613,Italy,1,
1156503907,Guankou,30.9933,103.624,China,,
1484087945,Tlaquepaque,20.6167,-103.3167,Mexico,0,
1156143149,Songyang,34.4603,113.028,China,0,
1408498177,Ch’ŏngjin,41.7833,129.7667,North Korea,1,
1156103317,Puyang Chengguanzhen,35.7004,114.98,China,0,
1156678111,Qionghu,28.8417,112.3595,China,0,
1156601489,Zhaodong,46.0635,125.9773,China,0,
1356542019,Narela,28.8527,77.0929,India,,
1024079828,Huambo,-12.7767,15.7347,Angola,1,
1156574542,Wenchang,31.054,116.9507,China,0,
1170426927,Villavicencio,4.15,-73.6333,Colombia,1,
1156989733,Shulan,44.4079,126.9429,China,0,
1484861603,Tlalnepantla,19.5367,-99.1947,Mexico,0,
1862657837,Catia La Mar,10.6,-67.0333,Venezuela,0,
1586696588,Sargodha,32.0836,72.6711,Pakistan,0,
1682958157,Al Hufūf,25.3833,49.5833,Saudi Arabia,,
1484854616,Durango,24.025,-104.6675,Mexico,1,
1566732241,Jalingo,8.9195,11.3264,Nigeria,1,
1384983838,Bouaké,7.6833,-5.0167,Côte d'Ivoire,1,
1484841466,Mazatlán,23.2167,-106.4167,Mexico,0,
1608850554,San Jose del Monte,14.8139,121.0453,Philippines,,
1410585171,Ansan,37.3167,126.8333,South Korea,,
1204016569,Abomey-Calavi,6.4486,2.3556,Benin,,
1156837145,Lingbao Chengguanzhen,34.5221,110.8786,China,0,
1410037247,Hwasu-dong,37.1997,126.8314,South Korea,,
1586141444,Sialkot City,32.4925,74.5311,Pakistan,0,
1704016023,Huế,16.4667,107.5792,Vietnam,1,
1716032632,Bulawayo,-20.17,28.58,Zimbabwe,1,
1156207794,Xiping,25.6005,103.8166,China,0,
1156476348,Sanhe,39.9808,117.0701,China,,
1410020455,Ch’ŏnan,36.8167,127.1667,South Korea,,
1076845191,Contagem,-19.9319,-44.0539,Brazil,,
1156304827,Jieshou,33.2605,115.3618,China,,
1792683478,Selçuklu,37.8814,32.4922,Turkey,0,
1231563638,Ērer Sātā,9.5667,41.3833,Ethiopia,,
1392505502,Honchō,35.6946,139.9826,Japan,,
1276615258,Düsseldorf,51.2333,6.7833,Germany,1,
1643983138,Izhevsk,56.85,53.2167,Russia,1,
1356374905,Guntūr,16.3008,80.4428,India,,
1156259342,Guixi,28.2861,117.2083,China,0,
1076758708,Sorocaba,-23.5017,-47.4581,Brazil,,
1792764051,Yıldırım,40.11,29.0821,Turkey,0,
1458989343,Petaling Jaya,3.0972,101.6444,Malaysia,,
1156832866,Tengyue,25.0208,98.4972,China,0,
1156027100,Wuxue,29.8518,115.5539,China,0,
1356018224,Rasūlpur,28.57,77.32,India,,
1356982375,Bhāvnagar,21.76,72.15,India,,
1356569354,Brahmapur,19.315,84.7941,India,,
1156490037,Qufu,35.6,116.9833,China,,
1156487293,Gaobeidian,39.3257,115.8678,China,,
1156104573,Ruiming,25.8833,116.0333,China,,
1840014730,Columbia,34.0378,-80.9036,United States,1,
1840018905,Concord,37.9722,-122.0016,United States,,
1356002491,Noida,28.57,77.32,India,,
1036153217,Gold Coast,-28.0167,153.4,Australia,,
1156422214,Xinshi,31.0236,113.1079,China,0,
1887324526,Ta‘izz,13.5789,44.0219,Yemen,1,
1076527830,Aracaju,-10.9167,-37.05,Brazil,1,
1410494847,Jeonju,35.8167,127.15,South Korea,1,
1356177796,Bhāngar,22.58,88.42,India,,
1156661253,Jin’e,29.3395,105.2868,China,0,
1643318931,Barnaul,53.3333,83.75,Russia,1,
1608725647,Makati City,14.5567,121.0214,Philippines,1,
1528892850,Rotterdam,51.9167,4.5,Netherlands,0,
1156166828,Changping,40.2248,116.1944,China,,
1434915572,Benghazi,32.1167,20.0667,Libya,1,
1804544901,Kryvyi Rih,47.9086,33.3433,Ukraine,0,
1818000039,Ḩalwān,29.8453,31.3333,Egypt,,
1840018825,Colorado Springs,38.8674,-104.7605,United States,,
1156236948,Suohe,34.7879,113.392,China,0,
1484504936,Chimalhuacán,19.4167,-98.9,Mexico,0,
1156258586,Xinxing,39.8734,124.1453,China,0,
1356098574,Bhilai,21.3667,81.7167,India,,
1356972351,Mangalore,12.902,74.8253,India,,
1384512844,Port-Bouët,5.2667,-3.9,Côte d'Ivoire,,
1156263400,Zhuangyuan,37.3056,120.8275,China,0,
1826836462,Glasgow,55.8611,-4.25,United Kingdom,,
1860894033,Namangan,41.0011,71.6683,Uzbekistan,1,
1643668944,Ulyanovsk,54.3167,48.3667,Russia,1,
1704599287,Tân An,10.905,106.6994,Vietnam,,
1643439037,Irkutsk,52.2833,104.2833,Russia,1,
1356071083,Bhilai,21.21,81.38,India,,
1356051733,Nāgercoil,8.1833,77.4119,India,,
1566773679,Jos,9.9167,8.8903,Nigeria,1,
1360992394,Pontianak,-0.0206,109.3414,Indonesia,1,
1156127276,Bazhou,39.1235,116.386,China,,
1156573684,Turpan,42.9512,89.1895,China,0,
1320353009,Villa Nueva,14.5314,-90.5964,Guatemala,0,
1608544537,Las Piñas City,14.45,120.98,Philippines,,
1840000466,Springfield,42.1155,-72.5395,United States,,
1840014486,Knoxville,35.9692,-83.9496,United States,,
1156474288,Meihekou,42.5279,125.678,China,0,
1156897463,Jurong,31.9579,119.1595,China,,
1076892244,Feira de Santana,-12.25,-38.95,Brazil,,
1643175363,Khabarovsk,48.4833,135.0667,Russia,1,
1156077330,Zhugang,28.1277,121.2288,China,0,
1276563678,Leipzig,51.34,12.375,Germany,0,
1156456552,Xinji,37.9423,115.2118,China,,
1360329102,Serang,-6.12,106.1503,Indonesia,1,
1360645580,Jambi,-1.59,103.61,Indonesia,1,
1004003059,Kandahār,31.62,65.7158,Afghanistan,1,
1032233996,San Miguel de Tucumán,-26.8167,-65.2167,Argentina,1,
1752059374,Gothenburg,57.7075,11.9675,Sweden,1,
1643338528,Yaroslavl,57.6167,39.85,Russia,1,
1840013941,Baton Rouge,30.442,-91.1311,United States,1,
1156996913,Zhangshu,28.0667,115.5375,China,,
1643832017,Vladivostok,43.1333,131.9,Russia,1,
1840020135,Ogden,41.2279,-111.9682,United States,,
1458763489,Kuantan,3.8167,103.3333,Malaysia,1,
1356096816,Raurkela,22.2492,84.8828,India,,
1356872061,Cuttack,20.5236,85.7881,India,,
1634097551,Ar Rayyān,25.25,51.4,Qatar,1,
1376133727,Haifa,32.8192,34.9992,Israel,1,
1024774947,Malanje,-9.5333,16.35,Angola,1,
1608244137,Bacolod,10.6765,122.9509,Philippines,1,
1156045160,Zhuozhou,39.4887,115.9918,China,,
1840002928,Grand Rapids,42.9619,-85.6562,United States,,
1076495001,Uberlândia,-18.9231,-48.2886,Brazil,,
1840000417,Albany,42.6664,-73.7987,United States,1,
1156770851,Tianchang,32.6853,119.0041,China,0,
1392975133,Kawaguchi,35.8077,139.7241,Japan,,
1392836404,Itabashi,35.7512,139.7093,Japan,,
1392003090,Suginami-ku,35.6995,139.6364,Japan,,
1360181436,Cimahi,-6.8712,107.5548,Indonesia,,
1484832519,Tuxtla,16.7528,-93.1167,Mexico,1,
1120803808,Garoua,9.3,13.4,Cameroon,1,
1682394909,Ḩafr al Bāţin,28.4342,45.9636,Saudi Arabia,,
1356033724,Tumkūr,13.34,77.1,India,,
1360500922,Balikpapan,-1.2768,116.8277,Indonesia,,
1710149138,Durban,-29.8833,31.05,South Africa,,
1392120675,Kagoshima,31.6,130.55,Japan,1,
1682494753,Al Ḩillah,23.4895,46.7564,Saudi Arabia,,
1643580480,Makhachkala,42.9833,47.4833,Russia,1,
1156609451,Sihui,23.3448,112.6956,China,,
1484625454,Irapuato,20.6667,-101.35,Mexico,0,
1124625989,Brampton,43.6833,-79.7667,Canada,,
1156180482,Luocheng,30.9793,104.28,China,0,
1800265900,Mbale,1.0806,34.175,Uganda,1,
1170386718,Pereira,4.8143,-75.6946,Colombia,1,
1840019148,Bakersfield,35.3529,-119.0359,United States,,
1180205443,Uvira,-3.4,29.15,Congo (Kinshasa),,
1276562886,Dortmund,51.5167,7.4667,Germany,0,
1156225985,Chuxiong,25.0461,101.5436,China,,
1840020580,Mission Viejo,33.6096,-117.6551,United States,,
1364072353,Zāhedān,29.4964,60.8628,Iran,1,
1840004850,New Haven,41.3113,-72.9246,United States,,
1458194263,Shah Alam,3.0722,101.5167,Malaysia,1,
1156385754,Wenlan,23.3989,103.3631,China,0,
1076112309,Cuiabá,-15.5958,-56.0969,Brazil,1,
1156107332,Shangzhi,45.2116,127.962,China,0,
1276769247,Essen,51.4508,7.0131,Germany,0,
1156018338,Botou,38.074,116.57,China,,
1050399881,Mymensingh,24.7539,90.4031,Bangladesh,1,
1410581095,Anyang,37.3833,126.9333,South Korea,,
1380716540,Genoa,44.4111,8.9328,Italy,1,
1356045686,Durgāpur,23.55,87.32,India,,
1729710259,Port Sudan,19.6167,37.2167,Sudan,1,
1400040712,Al Mafraq,32.3399,36.2052,Jordan,1,
1152516346,Puente Alto,-33.6167,-70.5667,Chile,0,
1356970407,Dehra Dūn,30.345,78.029,India,1,
1682956102,Aţ Ţā’if,21.2751,40.4062,Saudi Arabia,,
1156017483,Wancheng,18.8,110.4,China,0,
1392172935,Hachiōji,35.6664,139.316,Japan,,
1156284109,Xiulin,29.7211,112.4037,China,,
1156244234,Fu’an,27.1,119.6333,China,0,
1643258928,Tomsk,56.4886,84.9522,Russia,1,
1484750897,Tonalá,20.6167,-103.2333,Mexico,0,
1076006144,Juiz de Fora,-21.7619,-43.3494,Brazil,,
1840000434,Worcester,42.2705,-71.8079,United States,,
1180380965,Kolwezi,-10.7167,25.4667,Congo (Kinshasa),1,
1356147120,Chāpra,25.7848,84.7274,India,,
1826921049,Bristol,51.4536,-2.5975,United Kingdom,,
1156158643,Luofeng,37.359,120.396,China,0,
1156184681,Lingyuan,41.2407,119.3957,China,,
1400221568,Irbid,32.55,35.85,Jordan,1,
1818406471,Al Maḩallah al Kubrá,30.9686,31.1636,Egypt,,
1156985313,Wencheng,19.6167,110.75,China,0,
1276376509,Bremen,53.0833,8.8,Germany,1,
1862318264,Ciudad Bolívar,8.1219,-63.55,Venezuela,1,
1643685056,Orenburg,51.7667,55.1,Russia,1,
1156921843,Shenzhou,38.0005,115.5541,China,,
1356093694,Āsansol,23.68,86.99,India,,
1156174997,Kuiju,36.8528,119.3904,China,0,
1156634387,Zhenzhou,32.2739,119.1619,China,0,
1360853933,Surakarta,-7.5667,110.8167,Indonesia,,
1276561036,Dresden,51.05,13.74,Germany,1,
1356110593,Kolhāpur,16.6917,74.2333,India,,
1024141961,Benguela,-12.55,13.4167,Angola,1,
1484714297,Ensenada,31.8578,-116.6058,Mexico,0,
1643216311,Kemerovo,55.3667,86.0667,Russia,1,
1156686465,Lanxi,29.2167,119.4722,China,,
1156585505,Dangyang,30.8258,111.791,China,,
1050187264,Farīdpur,23.602,89.833,Bangladesh,,
1004237782,Herāt,34.3419,62.2031,Afghanistan,1,
1156092104,Luanzhou,39.7396,118.6978,China,0,
1364126377,Hamadān,34.8064,48.5161,Iran,1,
1643628717,Novokuznetsk,53.7667,87.1333,Russia,,
1356280972,Nellore,14.45,79.99,India,,
1724728111,Palma,39.5667,2.65,Spain,1,
1604799615,Chiclayo,-6.763,-79.8366,Peru,1,
1356722310,Nānded,19.15,77.3,India,,
1356058258,Ajmer,26.4499,74.6399,India,,
1887984890,Al Ḩudaydah,14.8022,42.9511,Yemen,1,
1410836094,Kimhae,35.2342,128.8811,South Korea,,
1840020174,Provo,40.2457,-111.6457,United States,,
1710326039,Rustenburg,-25.6667,27.2428,South Africa,,
1356462099,Amrāvati,20.9258,77.7647,India,,
1616725607,Poznań,52.4083,16.9336,Poland,1,
1156131099,Huanghua,38.371,117.3329,China,0,
1608473406,Muntinlupa City,14.38,121.05,Philippines,1,
1076723241,Londrina,-23.31,-51.1628,Brazil,,
1800032516,Nansana,0.3639,32.5286,Uganda,,
1682590992,Tabūk,28.3972,36.5789,Saudi Arabia,1,
1484614906,Heroica Matamoros,25.8797,-97.5042,Mexico,0,
1840000791,Akron,41.0798,-81.5219,United States,,
1860388706,Samarkand,39.6547,66.9758,Uzbekistan,1,
1156705922,Xingcheng,40.6189,120.7205,China,,
1156081841,Kaiyuan,42.538,124.0371,China,,
1276457707,Hannover,52.3667,9.7167,Germany,1,
1170481949,Valledupar,10.4833,-73.25,Colombia,1,
1156519626,Fengcheng,40.4543,124.0646,China,,
1484452937,Ixtapaluca,19.3186,-98.8822,Mexico,0,
1156064979,Ghulja,43.9,81.35,China,0,
1608985581,City of Calamba,14.2167,121.1667,Philippines,,
1076025295,Ananindeua,-1.3658,-48.3719,Brazil,,
1156215566,Xiangyang,34.2999,108.4816,China,,
1156530120,Fuding,27.2,120.2,China,0,
1368273311,An Nāşirīyah,31.0439,46.2575,Iraq,1,
1368916692,Al Ḩillah,32.4833,44.4333,Iraq,1,
1170245063,Ibagué,4.4333,-75.2333,Colombia,1,
1643205787,Ryazan,54.63,39.7425,Russia,1,
1729157224,Kassala,15.45,36.4,Sudan,1,
1422886065,Tripoli,34.4367,35.8344,Lebanon,1,
1156139784,Chang’an,29.4761,113.448,China,0,
1392003346,Kōtō-ku,35.6728,139.8173,Japan,,
1643008493,Naberezhnyye Chelny,55.7,52.3333,Russia,,
1156436913,Aksu,41.185,80.2904,China,0,
1032926124,Salta,-24.7833,-65.4167,Argentina,1,
1643407929,Astrakhan,46.35,48.035,Russia,1,
1356091187,Gulbarga,17.329,76.825,India,,
1706406560,Cadaado,6.1403,46.6256,Somalia,,
1250196189,Lyon,45.76,4.84,France,1,
1156575615,Wuhai,39.6844,106.8158,China,0,
1156864248,Mingguang,32.7816,117.9899,China,,
1056168623,Antwerp,51.2178,4.4003,Belgium,0,
1364429875,Yazd,31.8822,54.3397,Iran,1,
1686956738,Touba,14.8667,-15.8833,Senegal,,
1364437616,Ardabīl,38.2425,48.29,Iran,1,
1356026593,Bīkaner,28.0167,73.3119,India,,
1356148992,Agartala,23.8333,91.2833,India,1,
1894032745,Ndola,-12.9667,28.6333,Zambia,1,
1392003149,Himeji,34.8167,134.6833,Japan,,
1840015094,Palm Bay,27.9631,-80.6593,United States,,
1484562374,Tultitlán de Mariano Escobedo,19.645,-99.1694,Mexico,0,
1156279608,Ailan Mubage,43.908,81.2777,China,0,
1364120623,Bandar ‘Abbās,27.1833,56.2667,Iran,1,
1704025181,Bắc Ninh,21.1833,106.05,Vietnam,1,
1484855080,Ciudad Apodaca,25.7817,-100.1886,Mexico,0,
1862528581,Santa Teresa del Tuy,10.2333,-66.65,Venezuela,0,
1152583016,Maipú,-33.5167,-70.7667,Chile,,
1643492830,Penza,53.2,45,Russia,1,
1170512000,Soacha,4.5872,-74.2214,Colombia,0,
1682001245,Al Qaţīf,26.556,49.996,Saudi Arabia,,
1818628574,Port Said,31.2625,32.3061,Egypt,1,
1356528413,Loni,28.75,77.28,India,,
1156530681,Yucheng,36.9329,116.6403,China,0,
1804806030,Sevastopol,44.605,33.5225,Ukraine,1,
1504333193,Meknès,33.895,-5.5547,Morocco,,
1320420152,Mixco,14.6338,-90.6146,Guatemala,0,
1364624691,Arāk,34.0917,49.6892,Iran,1,
1410983252,Pohang,36.0322,129.365,South Korea,0,
1156863928,Longzhou,30.32,112.23,China,,
1156142150,Anda,46.4078,125.3252,China,0,
1156181533,Jinghong,22.0057,100.7948,China,,
1826289852,Sheffield,53.3808,-1.4703,United Kingdom,,
1392506125,Utsunomiya,36.5551,139.8826,Japan,1,
1818495972,Suez,29.9667,32.55,Egypt,1,
1276166609,Nuremberg,49.4539,11.0775,Germany,0,
1124001454,Surrey,49.19,-122.8489,Canada,,
1156013872,Heshan,22.7697,112.9578,China,,
1356050735,Ujjain,23.17,75.79,India,,
1156658217,Jiaji,19.2431,110.4642,China,0,
1170715594,Santa Marta,11.2419,-74.2053,Colombia,1,
1076050637,Joinvile,-26.3204,-48.8437,Brazil,,
1156424678,Beining,41.5961,121.7928,China,,
1840007069,Des Moines,41.5725,-93.6105,United States,1,
1704909566,Hải Dương,20.9397,106.3306,Vietnam,1,
1332000098,Carrefour,18.5344,-72.4094,Haiti,,
1862546949,Maturín,9.7423,-63.1889,Venezuela,1,
1112580227,Homyel’,52.4453,30.9842,Belarus,1,
1826431946,Leicester,52.6344,-1.1319,United Kingdom,,
1156405468,Yanji,42.9044,129.5067,China,0,
1076189884,Macapá,0.033,-51.0653,Brazil,1,
1156742818,Yicheng,31.7117,112.2551,China,0,
1356375341,Ulhāsnagar,19.22,73.15,India,,
1818297014,Al ‘Āshir min Ramaḑān,30.3065,31.7415,Egypt,,
1643772906,Lipetsk,52.6167,39.6,Russia,1,
1368336235,Al ‘Amārah,31.8333,47.15,Iraq,1,
1356077831,Bhīlwāra,25.35,74.63,India,,
1156653230,Encheng,22.1879,112.3131,China,0,
1840020553,Murrieta,33.5719,-117.1909,United States,,
1887867886,Aden,12.8,45.0333,Yemen,1,
1894321752,Kitwe,-12.8167,28.2,Zambia,,
1392220893,Matsuyama,33.8333,132.7667,Japan,1,
1356712664,Jhānsi,25.4486,78.5696,India,,
1158209038,Pingtung,22.6761,120.4942,Taiwan,1,
1608430676,Lapu-Lapu City,10.3127,123.9488,Philippines,1,
1392642525,Matsudo,35.7876,139.9032,Japan,,
1170855299,Montería,8.75,-75.8833,Colombia,1,
1392076347,Ichikawa,35.7219,139.9311,Japan,,
1156260844,Nagqu,31.4766,92.0569,China,0,
1608802508,Imus,14.4297,120.9367,Philippines,,
1158276420,Hsinchu,24.8167,120.9833,Taiwan,1,
1710282622,Kimberley,-28.7383,24.7639,South Africa,1,
1356491738,Jammu,32.73,74.87,India,1,
1024196826,Belas,-8.9983,13.265,Angola,,
1024988332,Talatona,-8.9167,13.1833,Angola,,
1566756897,Ile-Ife,7.4667,4.5667,Nigeria,0,
1356486511,Purnea,25.778,87.476,India,,
1643106064,Kirov,58.6,49.65,Russia,1,
1804398395,Mykolaiv,46.975,31.995,Ukraine,1,
1156136207,Meicheng,30.6412,116.5689,China,0,
1356037155,Tinnevelly,8.7136,77.7567,India,,
1076501425,Niterói,-22.8833,-43.1036,Brazil,,
1004523791,Farāh,32.3436,62.1194,Afghanistan,1,
1586383591,Sukkur,27.7061,68.8483,Pakistan,0,
1504891036,Oujda-Angad,34.6867,-1.9114,Morocco,1,
1156438524,Taozhou,30.8956,119.411,China,0,
1706165964,Marka,1.6833,44.75,Somalia,1,
1392117396,Higashi-ōsaka,34.6794,135.6008,Japan,,
1458747615,Johor Bahru,1.4556,103.7611,Malaysia,1,
1156039152,Hongjiang,27.1167,109.95,China,,
1170423489,Bello,6.3333,-75.5667,Colombia,0,
1604199858,Chimbote,-9.0745,-78.5936,Peru,,
1276977172,Duisburg,51.4347,6.7625,Germany,0,
1398274508,Qaraghandy,49.8028,73.1056,Kazakhstan,1,
1840020566,Mesa,33.4015,-111.7178,United States,,
1250258110,Toulouse,43.6045,1.444,France,1,
1180978192,Likasi,-10.9833,26.7333,Congo (Kinshasa),,
1156096868,Dengtacun,41.4237,123.3203,China,,
1360013261,Lembok,-8.565,116.351,Indonesia,,
1156769646,Zhijiang,30.4271,111.7506,China,,
1156571332,Chengjiao,35.4043,114.0593,China,0,
1156378599,Beipiao,41.802,120.7621,China,,
1156764587,Suoluntun,45.2279,124.8432,China,,
1840034032,Staten Island,40.5834,-74.1496,United States,,
1458150101,Kota Bharu,6.1333,102.25,Malaysia,1,
1484363879,Ciudad López Mateos,19.55,-99.2833,Mexico,0,
1484979555,Celaya,20.5222,-100.8122,Mexico,0,
1704960059,Vinh,18.6667,105.6667,Vietnam,1,
1156084618,Duyun,26.2672,107.5143,China,,
1484443585,Los Mochis,25.7835,-108.9937,Mexico,0,
1784337875,‘Ajmān,25.4136,55.4456,United Arab Emirates,1,
1729833248,Nyala,12.05,24.8833,Sudan,1,
1586678302,Larkana,27.5583,68.2111,Pakistan,0,
1840001686,Wichita,37.6895,-97.3443,United States,,
1392114116,Nishinomiya-hama,34.7376,135.3416,Japan,,
1643163382,Cheboksary,56.1333,47.25,Russia,1,
1156294277,Yuanping,38.7299,112.7134,China,,
1840000572,Toledo,41.6638,-83.5827,United States,,
1156900058,Yueqing,28.1188,120.9621,China,,
1826492520,Edinburgh,55.9533,-3.1892,United Kingdom,,
1356390535,Belgaum,15.85,74.5,India,,
1643255206,Tula,54.2,37.6167,Russia,1,
1616406372,Gdańsk,54.3475,18.6453,Poland,1,
1156690538,Shahe,36.8622,114.502,China,,
1076191325,Serra,-20.1289,-40.3078,Brazil,,
1840057464,Brookhaven,40.832,-72.9517,United States,,
1156238773,Gaoping,35.7911,112.9259,China,,
1156058709,Dunhua,43.3667,128.2333,China,0,
1400161837,Az Zarqā’,32.0833,36.1,Jordan,1,
1050646703,Sylhet,24.9,91.8667,Bangladesh,1,
1156017759,Kaihua,23.3715,104.2437,China,0,
1826362422,Caerdydd,51.4817,-3.1792,United Kingdom,,
1356104995,Jāmnagar,22.47,70.07,India,,
1156196485,Fuyuan,48.3614,134.2875,China,0,
1356045727,Gaya,24.75,85.01,India,,
1076190259,Florianópolis,-27.6122,-48.4853,Brazil,1,
1586413435,Chiniot,31.7194,72.9842,Pakistan,0,
1156155414,Jiannan,31.3446,104.1994,China,0,
1392081193,Ōita,33.2333,131.6067,Japan,1,
1706893125,Berbera,10.4356,45.0164,Somalia,,
1643178106,Kaliningrad,54.7003,20.4531,Russia,1,
1834396594,Mbeya,-8.9,33.45,Tanzania,1,
1156426803,Nangong,37.3606,115.3803,China,,
1356685959,Ambattūr,13.1143,80.1548,India,,
1710975690,Katlehong,-26.3333,28.15,South Africa,,
1392003246,Kurashiki,34.5833,133.7667,Japan,,
1050831924,Barura,23.375,91.0583,Bangladesh,,
1032869625,San Juan,-31.5342,-68.5261,Argentina,1,
1076404077,Vila Velha,-20.3364,-40.2936,Brazil,,
1004436363,Mazār-e Sharīf,36.7,67.1167,Afghanistan,1,
1586291726,Shekhupura,31.7111,73.9878,Pakistan,0,
1826936965,Worthing,50.8147,-0.3714,United Kingdom,,
1604331641,Piura,-5.2,-80.6333,Peru,1,
1608166320,Mandaluyong City,14.58,121.03,Philippines,1,
1792988658,Kartal,40.8872,29.19,Turkey,0,
1156812073,Jiaojiangcun,28.6804,121.45,China,,
1840001288,Harrisburg,40.2752,-76.8843,United States,1,
1156791804,Laohekou,32.3849,111.6695,China,,
1792526380,Kâğıthane,41.0719,28.9664,Turkey,,
1566564887,Agege,6.6219,3.3258,Nigeria,0,
1608036027,Angeles City,15.1472,120.5847,Philippines,1,
1076760827,São José do Rio Prêto,-20.8081,-49.3811,Brazil,,
1608448280,Pasay City,14.55,121,Philippines,1,
1156084414,Beian,48.2395,126.5037,China,0,
1156404715,Fujin,47.2489,132.0341,China,0,
1356720205,Salt Lake City,22.61,88.4,India,,
1643989845,Balashikha,55.8167,37.9667,Russia,,
1156910270,Xiaoyi,37.1449,111.7718,China,,
1840015119,Port St. Lucie,27.2796,-80.3884,United States,,
1032009573,Lanús,-34.7,-58.4,Argentina,0,
1156587033,Qingzhen,26.5555,106.4646,China,,
1156346497,Jiangshan,28.7412,118.6225,China,,
1368444902,Ba‘qūbah,33.75,44.6333,Iraq,1,
1392003368,Katsushika-ku,35.7434,139.8472,Japan,,
1682470726,Buraydah,26.3333,43.9667,Saudi Arabia,1,
1156034166,Longjiang,27.582,120.5488,China,,
1704985934,Tân Uyên,11.0508,106.7636,Vietnam,0,
1840020490,Long Beach,33.7977,-118.167,United States,,
1608000077,Marikina City,14.65,121.1,Philippines,1,
1360771278,Manado,1.4931,124.8413,Indonesia,1,
1076606365,Campos,-21.7539,-41.3239,Brazil,,
1392684679,Kanazawa,36.5611,136.6564,Japan,1,
1608875987,Iloilo,10.7167,122.5667,Philippines,1,
1840020121,Reno,39.5497,-119.8483,United States,,
1566495489,Calabar,4.9767,8.3383,Nigeria,1,
1156894895,Kuqa,41.7156,82.9322,China,0,
1300458367,Piraeus,37.943,23.6469,Greece,0,
1840002915,Madison,43.0822,-89.393,United States,1,
1356734842,Jalgaon,21.004,75.568,India,,
1036685862,Cranbourne,-38.0996,145.2834,Australia,,
1344000061,Kowloon City,22.3282,114.1916,Hong Kong,,
1076477498,Mauá,-23.6678,-46.4608,Brazil,,
1392551602,Fukuyama,34.4833,133.3667,Japan,,
1156161838,Xicheng,23.3629,103.1545,China,0,
1180518247,Kikwit,-5.0386,18.8181,Congo (Kinshasa),,
1392003182,Amagasaki,34.7333,135.4,Japan,,
1410641095,Pyeongtaek,36.9922,127.1128,South Korea,,
1356058372,Kurnool,15.83,78.05,India,,
1840015509,Little Rock,34.7256,-92.3577,United States,1,
1458467506,Melaka,2.1944,102.2486,Malaysia,1,
1608826995,General Trias,14.3833,120.8833,Philippines,,
1156278784,Jian’ou,27.0387,118.3215,China,0,
1792000667,Esenler,41.0339,28.8903,Turkey,,
1156018839,Huadian,42.9633,126.7478,China,,
1818501770,Ţanţā,30.7833,31,Egypt,1,
1458441859,Kota Kinabalu,5.975,116.0725,Malaysia,1,
1643011077,Kursk,51.7167,36.1833,Russia,1,
1156295044,Minzhu,43.7192,127.337,China,0,
1643947228,Stavropol,45.05,41.9833,Russia,1,
1356266094,Udaipur,24.58,73.68,India,,
1076857883,Mogi das Cruzes,-23.5228,-46.1878,Brazil,,
1804630021,Mariupol,47.0958,37.5494,Ukraine,0,
1364870126,Eslāmshahr,35.5606,51.2347,Iran,0,
1484264138,San Nicolás de los Garza,25.75,-100.2833,Mexico,0,
1840013501,Greenville,34.8354,-82.3646,United States,,
1344000058,Sham Shui Po,22.3307,114.1622,Hong Kong,,
1862418619,Barcelona,10.1333,-64.6833,Venezuela,1,
1012275076,Constantine,36.365,6.6147,Algeria,1,
1156690688,Tanbei,35.0907,112.9317,China,0,
1566196391,Ado-Ekiti,7.6167,5.2167,Nigeria,1,
1792630786,Batman,37.887,41.132,Turkey,1,
1360313023,Bandung,-6.912,107.6097,Indonesia,1,
1156988315,Baisha,29.4774,119.2853,China,,
1792144759,Avcılar,40.9792,28.7214,Turkey,,
1840019390,Denton,33.2175,-97.1418,United States,,
1608543530,Rodriguez,14.7167,121.1167,Philippines,,
1158127875,Taoyuan District,24.9913,121.3143,Taiwan,1,
1156001205,Yongji,34.867,110.4417,China,,
1050749168,Chauddagram,23.2283,91.3133,Bangladesh,,
1156347994,Danjiangkou,32.5408,111.5098,China,,
1792726797,Kahramanmaraş,37.5833,36.9333,Turkey,1,
1392640771,Fujisawa,35.35,139.4667,Japan,,
1860445095,Andijon,40.7833,72.3333,Uzbekistan,1,
1356066081,Mathura,27.4925,77.6736,India,,
1756539143,Zürich,47.3744,8.5411,Switzerland,1,
1076867279,Diadema,-23.6861,-46.6106,Brazil,,
1392788615,Machida,35.7106,139.4386,Japan,,
1643774900,Ulan-Ude,51.8272,107.6064,Russia,1,
1840021093,Spokane,47.6671,-117.433,United States,,
1156629205,Ning’an,44.3439,129.4656,China,0,
1156240430,Zhangjiakou Shi Xuanhua Qu,40.5944,115.0243,China,0,
1408510801,Sunch’ŏn,39.4167,125.9333,North Korea,,
1156184861,Jinchang,38.5168,102.1866,China,0,
1392133166,Kashiwa,35.8676,139.9758,Japan,,
1156955625,Guangming,45.3357,122.7765,China,0,
1356921375,Sāngli,16.8667,74.5667,India,,
1840020296,Oakland,37.7904,-122.2166,United States,,
1508407369,Beira,-19.8333,34.85,Mozambique,1,
1360696757,Kupang,-10.1702,123.6077,Indonesia,1,
1410364424,Jeju,33.5097,126.5219,South Korea,1,
1356445061,Davangere,14.4666,75.9242,India,,
1076809957,Caxias do Sul,-29.1667,-51.1833,Brazil,,
1170930654,Manizales,5.1,-75.55,Colombia,1,
1360384833,Yogyakarta,-7.8014,110.3644,Indonesia,1,
1356010401,Calicut,11.25,75.77,India,0,
1384863297,Koumassi,5.3,-3.95,Côte d'Ivoire,,
1484992153,Veracruz,19.1903,-96.1533,Mexico,0,
1364312712,Zanjān,36.6789,48.5056,Iran,1,
1710480365,Welkom,-27.9831,26.7208,South Africa,,
1392003304,Shinagawa-ku,35.6092,139.7302,Japan,,
1504534876,Kenitra,34.25,-6.5833,Morocco,,
1504116858,Agadir,30.4333,-9.6,Morocco,1,
1566609760,Somolu,6.5408,3.3872,Nigeria,0,
1566061694,Uyo,5.05,7.9333,Nigeria,1,
1566574518,Sokoto,13.0622,5.2339,Nigeria,1,
1840003718,Lancaster,40.042,-76.3012,United States,,
1410394650,Masan,35.1833,128.55,South Korea,,
1156149320,Huili Chengguanzhen,26.6614,102.2469,China,0,
1788196439,Sidi Bouzid,35.0381,9.4858,Tunisia,1,
1604162901,Cusco,-13.525,-71.9722,Peru,1,
1076045591,Porto Velho,-8.7619,-63.9039,Brazil,1,
1410313432,Sihŭng,37.3799,126.8029,South Korea,,
1484334948,Xalapa,19.54,-96.9275,Mexico,1,
1032730758,Florencio Varela,-34.8167,-58.2833,Argentina,,
1643456559,Tver,56.8578,35.9219,Russia,1,
1792019202,Trabzon,41.005,39.7225,Turkey,1,
1792485155,Malatya,38.3486,38.3194,Turkey,1,
1156656651,Xunyang,32.8357,109.359,China,,
1410888678,Uijeongbu,37.7486,127.0389,South Korea,,
1356089496,Akola,20.7,77,India,,
1392083898,Aomori,40.8223,140.7307,Japan,1,
1156048097,Yan’an Beilu,44.0144,87.2674,China,0,
1566833788,Owo,7.1961,5.5864,Nigeria,0,
1620507201,Aves,41.44,-8.3,Portugal,,
1170287988,Buenaventura,3.8772,-77.0267,Colombia,0,
1840000500,Poughkeepsie,41.695,-73.9211,United States,,
1124922301,Laval,45.5833,-73.75,Canada,,
1840027142,Boise,43.6005,-116.2308,United States,1,
1392498272,Toyota,35.0824,137.1563,Japan,,
1608571683,Santa Rosa,14.3167,121.1167,Philippines,,
1384564974,Daloa,6.8833,-6.45,Côte d'Ivoire,1,
1792156766,Elazığ,38.6744,39.2228,Turkey,1,
1104494124,Hpa-An,16.8906,97.6333,Myanmar,1,
1586136399,Rahimyar Khan,28.42,70.3,Pakistan,,
1356590604,Bettiah,26.8014,84.5028,India,,
1566000091,Ugep,5.8,8.0833,Nigeria,0,
1840015324,Winston-Salem,36.1029,-80.261,United States,,
1050000610,Kushtia,23.9101,89.1231,Bangladesh,,
1156267144,Mishan,45.542,131.8666,China,0,
1156267191,Hailin,44.5735,129.3825,China,0,
1458051507,Seremban,2.7222,101.9417,Malaysia,1,
1076621300,Boa Vista,2.8194,-60.6714,Brazil,1,
1156612198,Lecheng,25.1307,113.3472,China,0,
1156759747,Zhengjiatun,43.513,123.5003,China,0,
1804688214,Luhansk,48.5667,39.3333,Ukraine,1,
1156147187,Pencheng,29.6792,115.6611,China,,
1643987830,Magnitogorsk,53.3833,59.0333,Russia,,
1704890399,Thủ Dầu Một,10.9667,106.65,Vietnam,1,
1392427161,Takamatsu,34.35,134.05,Japan,1,
1840000378,Syracuse,43.0407,-76.1437,United States,,
1729215531,El Obeid,13.1833,30.2167,Sudan,1,
1156577983,Da’an,45.505,124.2863,China,0,
1156533633,Xingren,25.4352,105.1907,China,,
1608039268,Biñan,14.3333,121.0833,Philippines,,
1834484937,Arusha,-3.3667,36.6833,Tanzania,1,
1156455704,Fenyang,37.2647,111.7775,China,,
1434401280,Ajdābiyā,30.7556,20.2253,Libya,1,
1410365324,Paju,37.8667,126.8,South Korea,0,
1360021952,Mataram,-8.5833,116.1167,Indonesia,1,
1076874103,Carapicuíba,-23.5192,-46.8358,Brazil,,
1586288677,Jhang City,31.2694,72.3161,Pakistan,0,
1484433877,Tepic,21.5083,-104.8931,Mexico,1,
1360517692,Jayapura,-2.533,140.717,Indonesia,1,
1076391263,Rio Branco,-9.9747,-67.81,Brazil,1,
1392000560,Toyama,36.6959,137.2137,Japan,1,
1156384608,Fangting,31.1282,104.1695,China,0,
1364178783,Sanandaj,35.3144,46.9922,Iran,1,
1356526853,Delhi Cantonment,28.6,77.1333,India,,
1156081300,Linghai,41.1676,121.3558,China,,
1356512373,Shorāpur,16.52,76.76,India,,
1392003256,Toyonaka,34.7833,135.4667,Japan,,
1643009782,Sochi,43.5853,39.7203,Russia,,
1356760990,Bhāgalpur,25.25,87,India,,
1356209152,Bellary,15.1,76.9167,India,,
1643297945,Ivanovo,57,41,Russia,1,
1404511920,Kisumu,-0.0833,34.7667,Kenya,1,
1840029462,Augusta,33.3645,-82.0708,United States,,
1795079064,Türkmenabat,39.0833,63.5667,Turkmenistan,1,
1566287704,Zaria,11.0667,7.7,Nigeria,0,
1643208827,Bryansk,53.25,34.3667,Russia,1,
1410638233,Kumi,36.1195,128.3444,South Korea,,
1818456592,Asyūţ,27.1833,31.1667,Egypt,1,
1156571429,Wanyuan,32.0691,108.0351,China,0,
1862284350,Maracay,10.2469,-67.5958,Venezuela,1,
1356667176,Padiāla,30.5667,76.6333,India,,
1792234391,Yüreğir,36.9981,35.3439,Turkey,0,
1156275703,Jiexiu,37.0282,111.9103,China,,
1840021517,Stockton,37.9765,-121.3109,United States,,
1050833664,Bogra,24.85,89.3667,Bangladesh,,
1032817575,Santa Fe,-31.6333,-60.7,Argentina,1,
1076218697,Campina Grande,-7.2306,-35.8811,Brazil,,
1392162566,Nagasaki,32.7447,129.8736,Japan,1,
1616256546,Szczecin,53.4325,14.5481,Poland,1,
1076013378,Maringá,-23.4,-51.9167,Brazil,,
1840015064,Palm Coast,29.5389,-81.2457,United States,,
1840014569,Chattanooga,35.066,-85.2481,United States,,
1364073420,Qazvīn,36.2667,50,Iran,1,
1356304110,Quilon,8.88,76.6,India,,
1076998392,Jundiaí,-23.1858,-46.8839,Brazil,,
1392999987,Hirakata,34.8167,135.65,Japan,,
1392097787,Gifu,35.4232,136.7608,Japan,1,
1710736316,Khayelitsha,-34.0403,18.6778,South Africa,,
1356553747,Kūkatpalli,17.4849,78.4138,India,,
1156352568,Jiangjiafan,31.0238,111.9709,China,,
1104000431,Maungdaw,20.8167,92.3667,Myanmar,,
1840015109,Kissimmee,28.3041,-81.4169,United States,,
1840013364,Durham,35.9792,-78.9022,United States,,
1586002238,Dera Ghazi Khan,30.0331,70.64,Pakistan,0,
1392216224,Miyazaki,31.9167,131.4167,Japan,1,
1356022456,Bhātpāra,22.87,88.41,India,,
1356960055,Hazāribāgh,23.98,85.35,India,,
1458405180,Sandakan,5.8388,118.1173,Malaysia,,
1608530771,Taytay,14.5692,121.1325,Philippines,,
1156225234,Hejin,35.5914,110.706,China,,
1076784718,Olinda,-8,-34.8833,Brazil,,
1704016079,Thanh Hóa,19.8075,105.7764,Vietnam,1,
1643007475,Surgut,61.25,73.4333,Russia,,
1566097410,Nnewi,6.0167,6.9167,Nigeria,0,
1392948850,Minamisuita,34.7594,135.5169,Japan,,
1686527948,Thiès,14.7833,-16.9167,Senegal,1,
1450524066,Betsiboka,-16.95,46.83,Madagascar,,
1643407900,Belgorod,50.6,36.6,Russia,1,
1050628940,Tāngāil,24.2644,89.9181,Bangladesh,,
1392003389,Yokosuka,35.25,139.6667,Japan,,
1704497901,Nha Trang,12.245,109.1917,Vietnam,1,
1608045841,Malabon,14.66,120.96,Philippines,1,
1414182001,Al Jahrā’,29.35,47.6833,Kuwait,,
1566782065,Yola,9.23,12.46,Nigeria,1,
1170320545,Pasto,1.2078,-77.2772,Colombia,1,
1024128946,Lobito,-12.3597,13.5308,Angola,,
1682564079,Al Jubayl,27,49.6544,Saudi Arabia,,
1024326839,Saurimo,-9.65,20.4,Angola,1,
1380202039,Bologna,44.4939,11.3428,Italy,1,
1840019422,Arlington,32.6998,-97.125,United States,,
1586006990,Gujrat,32.5739,74.0789,Pakistan,0,
1368864006,Ad Dīwānīyah,31.9892,44.9247,Iraq,1,
1076166252,Piracicaba,-22.7253,-47.6492,Brazil,,
1156265838,Hancheng,35.4768,110.4419,China,,
1156892128,Karamay,45.5799,84.8892,China,0,
1356573609,Kākināda,16.9661,82.255,India,,
1384436547,San-Pédro,4.75,-6.6333,Côte d'Ivoire,1,
1156769379,Tieli,46.9838,128.04,China,0,
1360643410,Cilegon,-6.0027,106.0112,Indonesia,,
1356846195,Darbhanga,26.17,85.9,India,,
1840021731,Victorville,34.5277,-117.3536,United States,,
1566834535,Gwoza,11.0861,13.6914,Nigeria,0,
1566404680,Saki,8.6667,3.4,Nigeria,0,
1504709141,Tétouan,35.5667,-5.3667,Morocco,,
1398602716,Aqtöbe,50.2836,57.2297,Kazakhstan,1,
1818994454,Bibā,28.9218,30.9844,Egypt,,
1100436706,Plovdiv,42.15,24.75,Bulgaria,1,
1566930579,Oyo,7.85,3.933,Nigeria,0,
1566937414,Ilesa,7.6167,4.7167,Nigeria,0,
1608237027,Tarlac City,15.4869,120.59,Philippines,1,
1392862345,Okazaki,34.9543,137.1744,Japan,,
1356926718,Sirūr,18.83,74.38,India,,
1608314665,Cainta,14.5667,121.1167,Philippines,,
1682249750,Ḩā’il,27.5167,41.6833,Saudi Arabia,1,
1706512367,Garoowe,8.4,48.4667,Somalia,1,
1203328061,Olomouc,49.5939,17.2508,Czechia,1,
1156230664,Yidu,30.388,111.4505,China,,
1156020454,Lianzhou,24.7868,112.3735,China,0,
1706959191,Ceel Baraf,3.2073,45.7587,Somalia,,
1380726561,Florence,43.7714,11.2542,Italy,1,
1554377228,Christchurch,-43.531,172.6365,New Zealand,1,
1484597234,Nuevo Laredo,27.4861,-99.5069,Mexico,0,
1203676514,Brno,49.1925,16.6083,Czechia,1,
1512506161,Bawshar,23.5333,58.3833,Oman,,
1124469960,London,42.9836,-81.2497,Canada,,
1688169087,Novi Sad,45.2542,19.8425,Serbia,1,
1840018794,Aurora,39.7083,-104.7237,United States,,
1566383682,Gusau,12.15,6.6667,Nigeria,1,
1840020287,Modesto,37.6375,-121.0028,United States,,
1440302852,Kaunas,54.8972,23.8861,Lithuania,1,
1356932502,Sardārshahr,28.4401,74.4908,India,,
1156561299,Zêtang,29.238,91.771,China,,
1724501748,Las Palmas,28.1272,-15.4314,Spain,1,
1392379530,Ichinomiya,35.3039,136.8031,Japan,,
1104364374,Taunggyi,20.7836,97.0354,Myanmar,1,
1840020516,Lancaster,34.6935,-118.1753,United States,,
1840013368,Fayetteville,36.0714,-94.1661,United States,,
1586338974,Cantonment,31.5167,74.3833,Pakistan,,
1356118632,Pānihāti,22.69,88.37,India,,
1604249985,Huancayo,-12.0667,-75.2167,Peru,1,
1076953384,Betim,-19.9678,-44.1978,Brazil,,
1222984157,Usulután,13.35,-88.45,El Salvador,1,
1620848791,Sintra,38.7992,-9.3883,Portugal,0,
1716688236,Chitungwiza,-17.9939,31.0481,Zimbabwe,,
1792115763,Hatay,36.2025,36.1606,Turkey,1,
1604493809,Iquitos,-3.75,-73.25,Peru,1,
1792938326,Sivas,39.75,37.0167,Turkey,1,
1156734041,Helixi,30.6267,118.9861,China,0,
1840003389,Scranton,41.4044,-75.6649,United States,,
1324990909,Mamou,10.3833,-12.0833,Guinea,1,
1682947408,Al Kharj,24.1483,47.305,Saudi Arabia,,
1554797148,Manukau City,-37,174.885,New Zealand,,
1826799578,Stoke-on-Trent,53,-2.1833,United Kingdom,,
1862583279,Cumaná,10.45,-64.1667,Venezuela,1,
1356162915,Rohtak,28.8909,76.5796,India,,
1804658571,Vinnytsia,49.2333,28.4833,Ukraine,1,
1356847218,Māler Kotla,30.5167,75.8833,India,,
1608615113,Lipa City,13.9411,121.1622,Philippines,,
1608794590,Mandaue City,10.3333,123.9333,Philippines,1,
1586746564,Bhawana,31.5661,72.6461,Pakistan,,
1364548806,Khorramābād,33.4878,48.3558,Iran,1,
1360756802,Ambon,-3.7,128.1667,Indonesia,1,
1392000529,Takasaki,36.3219,139.0033,Japan,,
1608000722,Butuan,8.9534,125.5288,Philippines,1,
1392482960,Toyohashi,34.7692,137.3915,Japan,,
1158820647,Keelung,25.1333,121.7333,Taiwan,1,
1608164766,Baguio City,16.4119,120.5933,Philippines,1,
1152939649,La Florida,-33.5333,-70.5833,Chile,,
1792650082,Gebze,40.8,29.4333,Turkey,0,
1156002852,Lengshuijiang,27.6858,111.4279,China,,
1862595613,Petare,10.4833,-66.8167,Venezuela,0,
1156172518,Anguo,38.4177,115.3204,China,,
1392003263,Kita-ku,35.7528,139.7336,Japan,,
1364708556,Madan,30.3392,48.3042,Iran,,
1156659612,Panshi,42.9392,126.0561,China,,
1524780273,Bharatpur,27.6833,84.4333,Nepal,,
1368147923,Az Zubayr,30.3833,47.7,Iraq,0,
1076870058,Caucaia,-3.7167,-38.65,Brazil,,
1112480679,Vitsyebsk,55.1917,30.2056,Belarus,1,
1392536374,Shinjuku,35.6939,139.7034,Japan,,
1484589606,Nicolás Romero,19.5833,-99.3667,Mexico,0,
1156035769,Huichang,34.9136,112.7852,China,0,
1392603439,Nagano,36.6486,138.1947,Japan,1,
1076905338,Bauru,-22.315,-49.0608,Brazil,,
1156470847,Yanjiao,39.9432,116.8036,China,,
1276227288,Bochum,51.4819,7.2158,Germany,0,
1484363321,Tecámac,19.7131,-98.9683,Mexico,0,
1076208869,Anápolis,-16.3339,-48.9519,Brazil,,
1826979198,Coventry,52.4081,-1.5106,United Kingdom,,
1840020474,Oxnard,34.1964,-119.1815,United States,,
1356093877,Korba,22.35,82.68,India,,
1360730847,Cibinong,-6.485,106.842,Indonesia,0,
1356103194,Dāsarhalli,13.0465,77.513,India,,
1706405003,Qardho,9.5,49.0833,Somalia,,
1408692125,Wŏnsan,39.1475,127.4461,North Korea,1,
1792965114,Kocaeli,40.7625,29.9175,Turkey,1,
1710031016,Newcastle,-27.7464,29.9328,South Africa,,
1608000268,Iligan,8.23,124.25,Philippines,1,
1840003563,Youngstown,41.0993,-80.6463,United States,,
1608604441,Cabuyao,14.275,121.125,Philippines,,
1792910994,Kayapınar,37.94,40.19,Turkey,0,
1392891845,Nakano,35.7073,139.6637,Japan,,
1528871692,Utrecht,52.0833,5.1167,Netherlands,1,
1360191448,Bengkulu,-3.7956,102.2592,Indonesia,1,
1484766767,Orizaba,18.85,-97.1,Mexico,0,
1076618665,Blumenau,-26.9333,-49.05,Brazil,,
1076113275,Montes Claros,-16.7306,-43.8639,Brazil,,
1840019304,Indio,33.7346,-116.2346,United States,,
1332051873,Pétion-Ville,18.5128,-72.2864,Haiti,,
1050143008,Tungi,23.9,90.41,Bangladesh,,
1706176225,Buurhakaba,2.7833,44.0833,Somalia,0,
1156573894,Shuanghe,30.3866,106.7756,China,0,
1792668647,Konak,38.4189,27.1285,Turkey,0,
1818906012,Ash Shuhadā’,30.6039,30.9021,Egypt,,
1840015005,Pensacola,30.4413,-87.1911,United States,,
1566217980,Umuahia,5.5333,7.4833,Nigeria,1,
1729215057,Gedaref,14.0333,35.3833,Sudan,1,
1360518272,Palu,-0.895,119.8594,Indonesia,1,
1586001546,Mardan,34.2012,72.0258,Pakistan,0,
1524416084,Pokhara,28.2083,83.9889,Nepal,1,
1112518993,Mahilyow,53.9167,30.35,Belarus,1,
1156059331,Wudalianchi,48.6433,126.1408,China,0,
1112187197,Hrodna,53.6667,23.8333,Belarus,1,
1458639918,Sungai Petani,5.65,100.48,Malaysia,,
1156043522,Linxia Chengguanzhen,35.6,103.2167,China,0,
1356163729,Sīkar,27.62,75.15,India,,
1704906277,Nam Định,20.42,106.1683,Vietnam,1,
1076376829,Vitória,-20.2889,-40.3083,Brazil,1,
1356061200,Sasarām,24.95,84.03,India,,
1356837900,Karūr,10.9601,78.0766,India,,
1076740256,Franca,-20.5389,-47.4008,Brazil,,
1643712167,Vladimir,56.1286,40.4058,Russia,1,
1356145204,Karnāl,29.686,76.989,India,,
1706091701,Kismaayo,-0.3581,42.5453,Somalia,1,
1076857089,São Vicente,-23.9633,-46.3922,Brazil,,
1392825080,Kawagoe,35.9251,139.4858,Japan,,
1484460894,Villahermosa,17.9892,-92.9281,Mexico,1,
1398626276,Taraz,42.9,71.3667,Kazakhstan,1,
1024580158,Cubal,-13.1117,14.3672,Angola,,
1024283760,Luena,-11.7918,19.9062,Angola,1,
1887321491,Ibb,13.9667,44.1667,Yemen,1,
1156185328,Yong’an,25.9733,117.3593,China,0,
1276004611,Wuppertal,51.2667,7.1833,Germany,0,
1792804328,Manisa,38.6306,27.4222,Turkey,1,
1608862124,San Fernando,15.0333,120.6833,Philippines,1,
1356592607,Chānda,19.95,79.297,India,,
1484735713,Minatitlán,17.9833,-94.55,Mexico,0,
1752705818,Malmö,55.6058,13.0358,Sweden,1,
1643992310,Nizhniy Tagil,57.9167,59.9667,Russia,,
1608848483,San Pedro,14.3583,121.0583,Philippines,,
1024939858,Cuito,-12.3833,16.9333,Angola,1,
1156905289,Hongzhai,34.9857,104.5446,China,,
1686908896,Guédiawaye,14.7833,-17.4,Senegal,,
1392907296,Wakayama,34.2333,135.1667,Japan,1,
1344389641,Tin Shui Wai,22.4608,114.0012,Hong Kong,,
1398790087,Pavlodar,52.3,76.95,Kazakhstan,1,
1410797548,Gimpo,37.7,126.6,South Korea,0,
1076942224,Itaquaquecetuba,-23.4864,-46.3486,Brazil,,
1392520831,Nara,34.6844,135.805,Japan,1,
1792940471,Van,38.4942,43.38,Turkey,1,
1032173097,Corrientes,-27.4833,-58.8167,Argentina,1,
1170159963,Neiva,2.9345,-75.2809,Colombia,1,
1643797198,Arkhangelsk,64.55,40.5333,Russia,1,
1608417616,Batangas,13.83,121,Philippines,1,
1156208986,Licheng,24.4935,110.3902,China,0,
1392606124,Koshigaya,35.8911,139.7909,Japan,,
1408740449,Sinŭiju,40.1,124.4,North Korea,1,
1862398719,Cabimas,10.4,-71.4333,Venezuela,0,
1156666223,Yakeshi,49.2842,120.7283,China,0,
1068626742,Oruro,-17.9667,-67.1167,Bolivia,,
1356972679,Ahmadnagar,19.08,74.73,India,,
1356009111,Āvadi,13.1097,80.0972,India,,
1586338206,Sarai Alamgir,32.9,73.75,Pakistan,,
1100789115,Varna,43.2167,27.9167,Bulgaria,1,
1364802450,Gorgān,36.8386,54.4347,Iran,1,
1392003061,Takatsuki,34.85,135.6167,Japan,,
1192920574,Holguín,20.8869,-76.2592,Cuba,1,
1860403462,Qo‘qon,40.5286,70.9425,Uzbekistan,,
1398405657,Semey,50.4333,80.2667,Kazakhstan,1,
1156386711,Yingmen,39.9487,97.4395,China,,
1076479479,Cariacica,-20.2639,-40.42,Brazil,,
1170969619,Palmira,3.5833,-76.25,Colombia,0,
1484997178,Tapachula,14.9,-92.2667,Mexico,0,
1616454014,Bydgoszcz,53.1219,18.0003,Poland,1,
1152734289,Antofagasta,-23.65,-70.4,Chile,1,
1840019322,Anaheim,33.839,-117.8574,United States,,
1356831716,Rājahmundry,16.98,81.78,India,,
1643036673,Chita,52.0333,113.5,Russia,1,
1840014227,Bonita Springs,26.3558,-81.7859,United States,,
1076397475,Caruaru,-8.2828,-35.9758,Brazil,,
1250774553,Nice,43.7034,7.2663,France,0,
1356415439,Shāhjānpur,27.88,79.91,India,,
1508591443,António Enes,-16.2333,39.9167,Mozambique,,
1036067845,Central Coast,-33.3,151.2,Australia,,
1792749284,Pamukkale,37.9167,29.1167,Turkey,,
1729581572,Wad Medani,14.4,33.5167,Sudan,1,
1398371414,Öskemen,49.9833,82.6167,Kazakhstan,1,
1408940912,Tanch’ŏn,40.458,128.911,North Korea,,
1392340764,Tokorozawa,35.7996,139.4686,Japan,,
1356829362,Hosūr,12.7409,77.8253,India,,
1270640044,Serekunda,13.4333,-16.6667,The Gambia,,
1840013356,Greensboro,36.0956,-79.8271,United States,,
1729229371,Kūstī,13.1667,32.6667,Sudan,,
1356360140,Cuddapah,14.47,78.82,India,,
1804665958,Simferopol,44.9484,34.1,Ukraine,1,
1792425356,Sarıyer,41.1669,29.0572,Turkey,0,
1031630283,Sumqayıt,40.5917,49.6397,Azerbaijan,1,
1392164106,Ōtsu,35.0167,135.85,Japan,1,
1076812020,Vitória da Conquista,-14.8658,-40.8389,Brazil,,
1804926154,Makiivka,48.0556,37.9611,Ukraine,0,
1704581438,Vũng Tàu,10.3833,107.1167,Vietnam,1,
1112896927,Brest,52.1347,23.6569,Belarus,1,
1484051478,Uruapan,19.4208,-102.0628,Mexico,0,
1484092318,Gómez Palacio,25.5611,-103.4983,Mexico,0,
1410002025,Yeosu,34.7333,127.7333,South Korea,0,
1643161747,Kaluga,54.5333,36.2667,Russia,1,
1792895883,Meram,37.8364,32.4383,Turkey,0,
1356897425,Muzaffarpur,26.1225,85.3906,India,,
1356570855,Alwar,27.5498,76.6355,India,,
1616953501,Lublin,51.25,22.5667,Poland,1,
1156332794,Lianran,24.9211,102.4778,China,0,
1704542086,Buôn Ma Thuột,12.6667,108.05,Vietnam,1,
1484926471,Cuernavaca,18.9186,-99.2342,Mexico,1,
1724923163,Alicante,38.3453,-0.4831,Spain,0,
1710178149,East London,-33.0175,27.9047,South Africa,,
1792003860,Tarsus,36.9165,34.8951,Turkey,0,
1180529604,Matadi,-5.8167,13.4833,Congo (Kinshasa),1,
1840058203,Islip,40.7385,-73.1888,United States,,
1360945721,Cimanggis,-6.3645,106.8591,Indonesia,,
1408725697,Kaesŏng,37.9667,126.55,North Korea,1,
1180325051,Beni,0.5,29.4667,Congo (Kinshasa),,
1792744270,Sultanbeyli,40.9683,29.2617,Turkey,,
1840005061,Huntsville,34.6981,-86.6412,United States,,
1710279034,Randburg,-26.0936,28.0064,South Africa,,
1524593184,Jitpur,27.6666,85.3333,Nepal,,
1792504666,Beylikdüzü,41.0011,28.6419,Turkey,,
1076843988,Petrolina,-9.3928,-40.5078,Brazil,,
1410560599,Chinju,35.2,128.0833,South Korea,,
1156682620,Tangdong,25.9755,113.2302,China,0,
1826869043,Reading,51.4542,-0.9731,United Kingdom,,
1356772339,Sambalpur,21.47,83.97,India,,
1156202457,Hangu,39.232,117.777,China,,
1826325087,Belfast,54.5964,-5.93,United Kingdom,,
1586521586,Shah Latif Town,24.8806,67.1625,Pakistan,,
1392158088,Iwaki,37.0505,140.8877,Japan,,
1484741627,Salamanca,20.5703,-101.1972,Mexico,0,
1156969537,Yingzhong,32.2381,119.8133,China,,
1152898644,Viña del Mar,-33.0244,-71.5517,Chile,,
1392003311,Hirosaki,40.6031,140.4638,Japan,,
1276112885,Bielefeld,52.0211,8.5347,Germany,0,
1818017750,Az Zaqāzīq,30.5667,31.5,Egypt,1,
1231826873,Nazrēt,8.5414,39.2689,Ethiopia,,
1218041020,Cuenca,-2.8974,-79.0045,Ecuador,1,
1246964318,Tampere,61.4981,23.76,Finland,1,
1276807850,Bonn,50.7333,7.1,Germany,0,
1818281002,Al Fayyūm,29.3084,30.8441,Egypt,1,
1012045589,Blida,36.4722,2.8333,Algeria,1,
1484887986,Ciudad Obregón,27.4939,-109.9389,Mexico,0,
1076230331,Uberaba,-19.7478,-47.9319,Brazil,,
1840019718,Corpus Christi,27.7254,-97.3767,United States,,
1410521090,Asan,36.7833,126.9833,South Korea,,
1076482220,Ribeirão das Neves,-19.7669,-44.0869,Brazil,,
1484610487,Soledad de Graciano Sánchez,22.1833,-100.9333,Mexico,0,
1392333295,Maebashi,36.3895,139.0634,Japan,1,
1356676559,Kāmārhāti,22.6686,88.3704,India,,
1031197327,Gəncə,40.6828,46.3606,Azerbaijan,1,
1360992102,Kendari,-3.9907,122.5086,Indonesia,1,
1792020804,Balıkesir,39.6333,27.8833,Turkey,1,
1704613715,Thái Nguyên,21.6,105.85,Vietnam,1,
1392380358,Asahikawa,43.7706,142.365,Japan,,
1643627051,Smolensk,54.7828,32.0453,Russia,1,
1368137126,Dahūk,36.8667,43,Iraq,1,
