{
  "country": "Italy",
  "cityName": "milan",
  "descripyion": "milan is the  city of Italy. It is also the centre of the tourist City of milan.",
  "resturants": [
    {
      "id": 1,
      "name": "Trattoria Madonnina",
      "address": "Via Gentilino,6,20136 MILAN MI, Italy",
      "geoCode": {
        "Latitude": 41.920110744370284,
        "Longitude": 12.446031690814332
      },
      "budget": "high",
      "foodType": "fine dinning"
    },
    {
      "id": 2,
      "name": "il Luogo di Aimo e Nadia",
      "address": "Via Privata Raimondo Montecuccoli,6,20147 Milano MI Italy",
      "geoCode": {
        "Latitude": 41.894336555920006,
        "Longitude": 12.496274818992072
      },
      "budget": "medium",
      "foodType": "traditional"
    },
    {
      "id": 3,
      "name": "Da Giacomo",
      "address": "Via Pasquaie Sottocorno,6, 20129 Milano MI, Italy",
      "geoCode": {
        "Latitude": 41.89489285707279,
        "Longitude": 12.473089476756683
      },
      "budget": "high",
      "foodType": "fine dinning"
    },
    {
      "id": 4,
      "name": "Antica Tattoria della pesa",
      "address": "Viala pasubio, 10, 20154 Milano MI, Italy",
      "geoCode": {
        "Latitude": 41.89736613876378,
        "Longitude": 12.507873998643996
      },
      "budget": "high",
      "foodType": "traditional"
    },
    {
      "id": 5,
      "name": "Piz",
      "address": "Via Torino, 34, 20123 Milano MI, Italy",
      "geoCode": {
        "Latitude": 41.88901683607882,
        "Longitude": 12.47974200214277
      },
      "budget": "low",
      "foodType": "traditional"
    },
    {
      "id": 6,
      "name": "Paper Moon",
      "address": "Via Bagutta, 1, 20121 Milano MI, Italy",
      "geoCode": {
        "Latitude": 41.89997661533425,
        "Longitude": 12.477517868587144
      },
      "budget": "medium",
      "foodType": "traditional"
    },
    {
      "id": 7,
      "name": "Trattoria Milanese",
      "address": "Via Santa Marta, 11, 20123  Milano MI, Italy",
      "geoCode": {
        "Latitude": 41.89791985513992,
        "Longitude": 12.502734773664042
      },
      "budget": "low",
      "foodType": "fast food"
    },
    {
      "id": 8,
      "name": "Roscioli Caffè Pasticceria",
      "address": "Piazza Benedetto Cairoli, 16, Milano MI, Italy",
      "geoCode": {
        "Latitude": 41.895085085698095,
        "Longitude": 12.478286145392767
      },
      "budget": "medium",
      "foodType": "dessert"
    },
    {
      "id": 9,
      "name": "La Taverna dei Fori Imperiali",
      "address": "Via della Madonna dei Monti, 9, 00184 Roma RM, Italy",
      "geoCode": {
        "Latitude": 41.89453422606252,
        "Longitude": 12.489192080861834
      },
      "budget": "high",
      "foodType": "dessert"
    },
    {
      "id": 10,
      "name": "Ristorante Piperno",
      "address": "Monte de' Cenci, 9, 00186 Roma RM, Italy",
      "geoCode": {
        "Latitude": 41.88968021905381,
        "Longitude": 12.480586630819304
      },
      "budget": "high",
      "foodType": "fine dinning"
    },
    {
      "id": 11,
      "name": "Five Guys",
      "address": "Roma Termini, Piazza dei Cinquecento, 00187 Roma RM, Italy",
      "geoCode": {
        "Latitude": 41.9064960798235,
        "Longitude": 12.50225891959091
      },
      "budget": "low",
      "foodType": "fast food"
    }
  ],
  "shoppingPlaces": [
    {
      "id": 1,
      "name": "Galleria Vittorio Emanuele II",
      "address": " Piazza del Duomo, Milano MI, Italy",
      "geoCode": {
        "Latitude": 41.902102,
        "Longitude": 12.481708
      },
      "budget": "medium"
    },
    {
      "id": 2,
      "name": " Via Montenapoleone",
      "address": " Quadrilatero della Moda, Milano MI, Italy",
      "geoCode": {
        "Latitude": 41.902119,
        "Longitude": 12.482297
      },
      "budget": "low"
    },
    {
      "id": 3,
      "name": "Corso Como",
      "address": ", Milano MI, Italy",
      "geoCode": {
        "Latitude": 41.905964,
        "Longitude": 12.481628
      },
      "budget": "low"
    },
    {
      "id": 4,
      "name": "Via della Spiga",
      "address": " Quadrilatero della Moda,Milano MI, Italy",
      "geoCode": {
        "Latitude": 41.902175,
        "Longitude": 12.488292
      },
      "budget": "high"
    },
    {
      "id": 5,
      "name": "La Rinascente",
      "address": "Piazza del Duomo, Milano MI, Italy",
      "geoCode": {
        "Latitude": 41.87251,
        "Longitude": 12.472869
      },
      "budget": "medium"
    },
    {
      "id": 6,
      "name": "Brera Shopping Distric",
      "address": ",Milano MI, Italy",
      "geoCode": {
        "Latitude": 41.828383,
        "Longitude": 12.468162
      },
      "budget": "high"
    },
    {
      "id": 7,
      "name": "Corso Buenos Aires",
      "address": "Corso Buenos Aires, Milano MI, Italy",
      "geoCode": {
        "Latitude": 41.63776,
        "Longitude": 12.452605
      },
      "budget": "medium"
    },
    {
      "id": 8,
      "name": "Corso Como",
      "address": "Corso Como,Milano MI, Italy",
      "geoCode": {
        "Latitude": 41.908646,
        "Longitude": 12.465426
      },
      "budget": "high"
    },
    {
      "id": 9,
      "name": "Serravalle Designer Outlet ",
      "address": "Via della Moda, Serravalle Scrivia, Milano MI, Italy",
      "geoCode": {
        "Latitude": 41.904793,
        "Longitude": 12.481215
      },
      "budget": "low"
    },
    {
      "id": 10,
      "name": "Porta Nuova",
      "address": "Porta Nuova, Milano MI, Italy",
      "geoCode": {
        "Latitude": 41.90546,
        "Longitude": 12.482145
      },
      "budget": "high"
    }
  ],
  "oldPlaces": [
    {
      "id": 1,
      "name": "Duomo di Milano",
      "address": "Piazza del Duomo, Milano MI, Italy",
      "geoCode": {
        "Latitude": 41.89021,
        "Longitude": 12.49223
      }
    },
    {
      "id": 2,
      "name": "Castello Sforzesco",
      "address": "Piazza Castello, Milano MI, Italy",
      "geoCode": {
        "Latitude": 41.892635,
        "Longitude": 12.485349
      }
    },
    {
      "id": 3,
      "name": "Teatro alla Scala",
      "address": "Piazza Teatro alla Scala, Milano MI, Italy",
      "geoCode": {
        "Latitude": 41.89861,
        "Longitude": 12.476846
      }
    },
    {
      "id": 4,
      "name": "Santa Maria delle Grazie",
      "address": "Piazza Santa Maria delle Grazie, Milano MI, Italy",
      "geoCode": {
        "Latitude": 41.900932,
        "Longitude": 12.48329
      }
    },
    {
      "id": 5,
      "name": "Brera",
      "address": "Brera",
      "geoCode": {
        "Latitude": 41.902916,
        "Longitude": 12.453389
      }
    },
    {
      "id": 6,
      "name": "Naviglio Grande",
      "address": "Navigli District,Milano MI, Italy",
      "geoCode": {
        "Latitude": 41.90546,
        "Longitude": 12.482145
      }
    },
    {
      "id": 7,
      "name": "Palazzo Reale",
      "address": "Piazza del Duomo,Milano MI, Italy",
      "geoCode": {
        "Latitude": 41.903056,
        "Longitude": 12.466389
      }
    },
    {
      "id": 8,
      "name": "Porta Ticinese",
      "address": "Porta Ticinese,Milano MI, Italy",
      "geoCode": {
        "Latitude": 41.888359,
        "Longitude": 12.487366
      }
    },
    {
      "id": 9,
      "name": "Cerchia dei Navigli",
      "address": "Navigli District,Milano MI, Italy",
      "geoCode": {
        "Latitude": 41.87956,
        "Longitude": 12.492309
      }
    },
    {
      "id": 10,
      "name": "Sant'Ambrogio",
      "address": "PiazzaSant'Ambrogio,Milano MI, Italy",
      "geoCode": {
        "Latitude": 41.89917,
        "Longitude": 12.47351
      }
    }
  ],
  "naturePlaces": [
    {
      "id": 1,
      "name": "Sempione Park",
      "address": "Piazzale Sempione ,Milano MI, Italy",
      "geoCode": {
        "Latitude": 41.912731,
        "Longitude": 12.4856
      }
    },
    {
      "id": 2,
      "name": "Parco Nord",
      "address": "Via Clerici ,Via Dire Daua ,Via Privata Gaetano De Castillia,Milano MI, Italy",
      "geoCode": {
        "Latitude": 41.891448,
        "Longitude": 12.468141
      }
    },
    {
      "id": 3,
      "name": "Giardini Pubblici",
      "address": "Via Palestro,Milano MI, Italy",
      "geoCode": {
        "Latitude": 41.932116,
        "Longitude": 12.427197
      }
    },
    {
      "id": 4,
      "name": "Parco Sempione",
      "address": "Piazzale Scarampo,Milano MI, Italy",
      "geoCode": {
        "Latitude": 41.890737,
        "Longitude": 12.461903
      }
    },
    {
      "id": 5,
      "name": "Parco delle Cave",
      "address": "Via Marco Polo, Milano MI, Italy",
      "geoCode": {
        "Latitude": 41.853483,
        "Longitude": 12.571637
      }
    },
    {
      "id": 6,
      "name": "Parco Lambro",
      "address": "Lago di Bracciano,Milano MI, Italy",
      "geoCode": {
        "Latitude": 42.111241,
        "Longitude": 12.199484
      }
    },
    {
      "id": 7,
      "name": "Parco Expo",
      "address": "Rho, Milano MI, Italy",
      "geoCode": {
        "Latitude": 41.888611,
        "Longitude": 12.4775
      }
    },
    {
      "id": 8,
      "name": "Parco Forlanini",
      "address": " Via Circonvallazione Idroscalo, Milano MI, Italy",
      "geoCode": {
        "Latitude": 41.858203,
        "Longitude": 12.515993
      }
    },
    {
      "id": 9,
      "name": "Parco Vittorio Tripiari",
      "address": "Via Filippo Turat, Milano MI, Italy",
      "geoCode": {
        "Latitude": 41.881972,
        "Longitude": 12.444107
      }
    },
    {
      "id": 10,
      "name": "Parco Groane",
      "address": "Via Gerolamo da Brescia,Milano MI, Italy",
      "geoCode": {
        "Latitude": 41.73698985513557,
        "Longitude": 12.28517615956347
      }
    }
  ],
  "nightPlaces": [
    {
      "id": 1,
      "name": "Bar Navigli",
      "address": "Navigli,Milano MI, Italy",
      "geoCode": {
        "Latitude": 41.90079059587993,
        "Longitude": 12.495658295400876
      },
      "budget": "medium"
    },
    {
      "id": 2,
      "name": "Club Arco della Pace",
      "address": "Via Procaccini, Milano MI, Italy",
      "geoCode": {
        "Latitude": 42.61517702203919,
        "Longitude": 12.588172027923532
      },
      "budget": "high"
    },
    {
      "id": 3,
      "name": "Tocqueville 13",
      "address": "Via Tocqueville,Milano MI, Italy",
      "geoCode": {
        "Latitude": 41.90108118403159,
        "Longitude": 12.483358776092714
      },
      "budget": "low"
    },
    {
      "id": 4,
      "name": "Icon Club",
      "address": "Via Molino delle Armi,Milano MI, Italy",
      "geoCode": {
        "Latitude": 41.904141879788085,
        "Longitude": 12.47503285466089
      },
      "budget": "low"
    },
    {
      "id": 5,
      "name": "Magazzini Generali",
      "address": "Via Pietrasanta,Milano MI, Italy",
      "geoCode": {
        "Latitude": 41.90318294933377,
        "Longitude": 12.466254537728092
      },
      "budget": "high"
    },
    {
      "id": 6,
      "name": "Tocq Hotel Milano",
      "address": "Corso Como,Milano MI, Italy",
      "geoCode": {
        "Latitude": 41.905156608826275,
        "Longitude": 12.461993231390387
      },
      "budget": "medium"
    },
    {
      "id": 7,
      "name": "Hollywood Rythmoteque",
      "address": "Via Giosuè Borsi",
      "geoCode": {
        "Latitude": 41.90663948198113,
        "Longitude": 12.453652024237723
      },
      "budget": "medium"
    },
    {
      "id": 8,
      "name": "Discoteka",
      "address": " Viale Enrico Fermi, Metropolitan City of Milano Capital, Italy",
      "geoCode": {
        "Latitude": 41.885986467545884,
        "Longitude": 12.47013118675295
      },
      "budget": "low"
    }
  ]
}
